     3.02           OBSERVATION DATA    M: MIXED            RINEX VERSION / TYPE
GR10 V3.11          CNES                20160104 235943 UTC PGM / RUN BY / DATE
SNR is mapped to RINEX snr flag value [1-9]                 COMMENT
LX:     < 12dBHz -> 1; 12-17dBHz -> 2; 18-23dBHz -> 3       COMMENT
       24-29dBHz -> 4; 30-35dBHz -> 5; 36-41dBHz -> 6       COMMENT
       42-47dBHz -> 7; 48-53dBHz -> 8; >= 54dBHz -> 9       COMMENT
KOUG                                                        MARKER NAME
97301M402                                                   MARKER NUMBER
REGINA              CNES                                    OBSERVER / AGENCY
1700239             LEICA GR10          3.11.1639/6.403     REC # / TYPE / VERS
10180007            LEIAR25.R3      LEIT                    ANT # / TYPE
  3855263.3407 -5049731.9986   563040.4252                  APPROX POSITION XYZ
        0.0000        0.0000        0.0000                  ANTENNA: DELTA H/E/N
G   16 C1C L1C D1C S1C C2S L2S D2S S2S C2W L2W D2W S2W C5Q  SYS / # / OBS TYPES
       L5Q D5Q S5Q                                          SYS / # / OBS TYPES
R    8 C1C L1C D1C S1C C2P L2P D2P S2P                      SYS / # / OBS TYPES
E   16 C1C L1C D1C S1C C5Q L5Q D5Q S5Q C7Q L7Q D7Q S7Q C8Q  SYS / # / OBS TYPES
       L8Q D8Q S8Q                                          SYS / # / OBS TYPES
C    8 C1I L1I D1I S1I C7I L7I D7I S7I                      SYS / # / OBS TYPES
S    4 C1C L1C D1C S1C                                      SYS / # / OBS TYPES
DBHZ                                                        SIGNAL STRENGTH UNIT
    30.000                                                  INTERVAL
  2016    01    05    00    00    0.0000000     GPS         TIME OF FIRST OBS
  2016    01    05    07    30   30.0000000     GPS         TIME OF LAST OBS
     0                                                      RCV CLOCK OFFS APPL
G L2S -0.25000                                              SYS / PHASE SHIFT
G L2X -0.25000                                              SYS / PHASE SHIFT
R L2P  0.25000                                              SYS / PHASE SHIFT
E L8Q -0.25000                                              SYS / PHASE SHIFT
 24 R01  1 R02 -4 R03  5 R04  6 R05  1 R06 -4 R07  5 R08  6 GLONASS SLOT / FRQ #
    R09 -2 R10 -7 R11  0 R12 -1 R13 -2 R14 -7 R15  0 R16 -1 GLONASS SLOT / FRQ #
    R17 -6 R18 -3 R19  3 R20  2 R21  4 R22 -3 R23  3 R24  2 GLONASS SLOT / FRQ #
 C1C  -71.940 C1P  -71.940 C2C  -71.940 C2P  -71.940        GLONASS COD/PHS/BIS
    17    17  1851     3                                    LEAP SECONDS
                                                            END OF HEADER
> 2016 01 05 00 00  0.0000000  0 30
G03  25038433.210   131577811.17807      1198.160          42.800    25038432.530   102528152.78006       933.626          38.600    25038432.027   102528145.77605       933.626          35.650    25038434.480    98256143.48207       894.765          47.250
G08  24977531.911   131257806.21007      3534.361          43.850    24977533.482   102278812.92106      2754.070          39.700    24977531.799   102278815.91505      2754.070          34.050    24977533.850    98017198.26707      2639.308          47.300
G10  23687560.161   124479051.06507     -2426.620          47.700    23687556.953    96996688.38707     -1890.902          44.150    23687556.779    96996688.38006     -1890.902          40.500    23687555.523    92955163.95108     -1812.005          50.000
G14  20673874.900   108642071.51108      -999.339          48.700                                                                    20673870.563    84656192.19907      -778.702          46.150
G16  21572119.878   113362336.63908      -274.341          49.600                                                                    21572117.688    88334186.77507      -213.767          43.750
G21  24114179.347   126720891.98007       -79.874          45.400                                                                    24114172.803    98743542.63105       -62.236          35.900
G22  22270096.078   117030174.70808     -1918.844          49.150                                                                    22270088.706    91192343.50907     -1495.208          42.900
G26  21754793.711   114322292.53908     -1419.432          49.450    21754793.767    89082339.67807     -1106.054          46.350    21754793.381    89082339.67507     -1106.054          44.150    21754794.826    85370595.10308     -1060.001          52.050
G27  22298689.123   117180476.45808      3141.809          48.650    22298687.552    91309493.02207      2448.166          46.000    22298686.933    91309489.02007      2448.166          42.750    22298688.532    87504938.52808      2346.111          51.600
G29  23998790.936   126114453.24908     -3003.140          49.150    23998790.971    98270978.10106     -2340.104          41.650    23998790.735    98270980.10506     -2340.104          40.850
G32  23015845.102   120949047.86807        31.714          47.400                                                                    23015844.477    94246027.20207        24.714          42.600
R01  23413103.505   125156421.50607      2699.465          44.500    23413107.389    97343884.51805      2099.573          32.750
R06  24516920.795   130826971.06106     -3817.522          41.250
R07  20935789.861   112070987.28408     -3176.437          48.800    20935789.560    87166267.06207     -2470.566          46.900
R08  20417252.683   109333430.47807       -32.162          47.700    20417253.810    85037145.68407       -25.018          46.950
R09  24407673.080   130335626.46205      -223.585          32.900
R10  23095736.162   123113363.35307      -101.702          44.500    23095745.286    95754899.24805       -79.106          33.300
R11  23631669.722   126280619.94206        16.529          38.150    23631673.603    98218313.52505        12.858          35.850
R20  21335554.773   114090830.51706      -958.632          41.650    21335558.196    88737298.81107      -745.589          42.600
R21  20405947.130   109196445.96508      2232.898          48.250    20405948.297    84930638.54807      1736.701          46.200
R22  23116932.176   123399799.38407      3931.893          46.650    23116936.620    95977650.86406      3058.145          41.800
E12  24567656.694   129103942.39348      1635.183          50.850    24567656.334    96408820.83508      1221.097          50.550    24567652.823    98923811.16308      1252.916          51.600    24567653.841    97666307.87907      1236.973          47.900
E19  28533866.591   149946481.78957     -2609.119          43.050    28533873.605   111973047.27216     -1948.584          38.500    28533866.762   114894063.34116     -1999.117          38.750    28533869.603   113433547.66415     -1973.800          33.650
C11  22856303.880   119018910.26707      2343.962          46.700    22856298.201    92033022.81608      1812.526          50.400
C12  22324405.347   116249061.45607      -323.584          45.700    22324401.632    89891146.13308      -250.271          50.850
C14  22795533.453   118702357.21807     -1460.756          46.600    22795528.648    91788196.78908     -1129.520          50.650
S20  37330859.804   196175053.84707         5.517          46.400
S33  37961540.409   199489274.75107         5.231          45.550
S35  41571054.405   218457367.30306         -.424          41.300
S38  38831187.156   204059256.99508          .217          48.150
> 2016 01 05 00 00 30.0000000  0 30
G03  25031625.131   131542035.05407      1186.931          42.350    25031624.829   102500275.17906       924.878          38.800    25031624.186   102500268.15705       924.876          35.300    25031626.666    98229427.38907       886.355          47.650
G08  24957354.232   131151771.61507      3534.579          43.850    24957355.330   102196189.07506      2754.225          40.100    24957353.971   102196192.05206      2754.221          36.400    24957355.871    97938017.12607      2639.461          47.900
G10  23701399.723   124551776.76807     -2421.852          46.700    23701396.190    97053357.12007     -1887.175          42.650    23701396.031    97053357.11906     -1887.175          39.200    23701395.398    93009471.37408     -1808.496          49.750
G14  20679632.302   108672327.63008     -1017.602          48.450                                                                    20679627.993    84679768.46607      -792.936          46.050
G16  21573720.014   113370747.23308      -286.461          48.900                                                                    21573718.037    88340740.16107      -223.226          43.800
G21  24114642.222   126723325.24507       -82.324          45.900                                                                    24114636.035    98745438.74905       -64.146          35.000
G22  22281053.330   117087755.53308     -1919.820          48.850                                                                    22281046.134    91237211.56707     -1495.960          43.550
G26  21762910.420   114364944.99208     -1424.011          49.950    21762910.354    89115575.15507     -1109.628          47.700    21762909.873    89115575.14707     -1109.628          46.050    21762911.545    85402445.66708     -1063.221          52.550
G27  22280775.763   117086341.83508      3133.857          48.650    22280774.131    91236141.41407      2441.965          46.300    22280773.368    91236137.41807      2441.965          44.150    22280775.113    87434643.27408      2340.263          51.850
G29  24015960.886   126204681.25407     -3012.134          47.050    24015961.015    98341285.50006     -2347.127          39.950    24015960.546    98341287.50606     -2347.127          39.550
G32  23015692.782   120948253.36407        20.871          47.750                                                                    23015691.646    94245410.15916        16.273          40.250
R01  23397998.119   125075674.84307      2683.443          44.500    23398003.043    97281081.23405      2087.111          32.550
R06  24538360.887   130941378.07006     -3809.885          41.300
R07  20953617.260   112166418.84007     -3185.762          47.350    20953616.623    87240491.24907     -2477.814          44.600
R08  20417495.830   109334735.30408       -54.708          48.650    20417497.514    85038160.91108       -42.527          48.800
R09  24408910.588   130342241.13506      -217.889          37.200
R10  23096282.050   123116272.62607       -92.102          44.800    23096291.069    95757162.09106       -71.634          36.200
R11  23631555.426   126280011.36206        23.830          39.400    23631559.892    98217840.20405        18.534          35.650
R20  21340997.663   114119934.92607      -981.424          42.750    21341001.150    88759935.43906      -763.307          40.600
R21  20393471.450   109129687.98408      2217.555          48.300    20393472.961    84878715.76107      1724.769          46.200
R22  23094825.885   123281793.31307      3935.232          47.150    23094829.901    95885868.36106      3060.733          40.350
E12  24558337.991   129054973.05748      1629.335          50.700    24558337.394    96372252.88508      1216.691          50.300    24558334.119    98886289.25508      1248.427          51.500    24558335.206    97629262.94607      1232.561          47.700
E19  28548750.269   150024695.64856     -2605.314          38.050
C11  22842820.774   118948699.12707      2336.724          46.800    22842815.153    91978731.00208      1806.872          50.550
C12  22326312.378   116258992.55907      -338.333          45.900    22326308.641    89898825.45408      -261.648          50.800
C14  22803968.599   118746280.54507     -1467.566          47.150    22803963.718    91822160.34808     -1134.781          51.050
S20  37330828.015   196174886.10807         5.445          46.000
S33  37961509.300   199489113.90407         5.323          45.600
S35  41571059.080   218457375.43906         -.473          41.000
S38  38831183.398   204059240.29507          .614          46.100
> 2016 01 05 00 01  0.0000000  0 30
G03  25024882.809   131506604.08807      1175.363          42.700    25024882.507   102472666.43906       915.863          37.950    25024881.632   102472659.43005       915.861          34.550    25024884.798    98202969.02607       877.719          47.750
G08  24937175.349   131045733.59607      3534.698          43.900    24937176.721   102113562.12106      2754.314          40.350    24937175.216   102113565.10706      2754.311          36.050    24937176.807    97858833.05307      2639.489          47.750
G10  23715211.986   124624356.48907     -2416.865          47.150    23715207.973    97109912.26007     -1883.293          42.650    23715207.597    97109912.24706     -1883.294          38.500    23715207.638    93063669.94808     -1804.813          49.800
G14  20685493.936   108703130.95008     -1035.858          48.850                                                                    20685489.611    84703771.11507      -807.161          45.600
G16  21575389.257   113379519.74508      -298.373          48.900                                                                    21575387.484    88347575.82607      -232.492          43.000
G21  24115120.013   126725837.21907       -85.035          44.950                                                                    24115113.953    98747396.15905       -66.263          33.700
G22  22292015.861   117145363.60808     -1920.650          48.950                                                                    22292008.651    91282100.89207     -1496.607          42.050
G26  21771053.753   114407737.19808     -1428.777          48.950    21771053.767    89148919.39607     -1113.345          46.050    21771053.292    89148919.39607     -1113.344          43.650    21771054.969    85434400.54608     -1066.958          51.700
G27  22262907.860   116992445.97208      3125.833          49.800    22262906.309    91162975.85208      2435.719          48.000    22262905.543    91162971.85107      2435.718          46.350    22262907.344    87364526.27508      2334.246          52.450
G29  24033182.569   126295180.16607     -3021.054          43.400    24033182.747    98411803.83304     -2354.068          27.950    24033181.837    98411805.86704     -2354.060          25.300
G32  23015601.635   120947775.08908        10.552          48.150                                                                    23015600.944    94245035.01716         8.213          40.350
R01  23382983.311   124995411.65007      2667.471          45.000    23382988.993    97218654.00805      2074.690          33.550
R06  24559758.529   131055558.40007     -3802.026          45.550
R07  20971496.642   112262128.96607     -3194.843          47.850    20971496.405    87314937.02417     -2484.877          45.750
R08  20417865.324   109336716.61007       -77.313          46.050    20417867.523    85039701.45807       -60.146          45.600
R09  24410115.821   130348680.83206      -211.893          39.750
R10  23096774.086   123118894.96907       -82.438          45.600    23096781.890    95759090.57715       -64.120          34.100
R11  23631401.508   126279188.40106        30.883          39.500    23631406.091    98217200.19305        24.024          35.850
R20  21346565.568   114149710.07107     -1003.612          45.000    21346568.995    88783093.92007      -780.584          46.200
R21  20381083.119   109063396.62107      2201.960          47.450    20381084.711    84827155.87907      1712.639          46.350
R22  23072701.206   123163689.34707      3938.567          47.700    23072704.863    95794009.78906      3063.333          41.800
E12  24549053.002   129006180.96048      1623.737          50.950    24549052.257    96335817.23708      1212.413          50.350    24549049.349    98848903.11908      1243.991          51.700    24549050.377    97592352.05408      1228.210          48.000
E19  28563611.109   150102787.67456     -2600.455          41.300    28563618.407   112089772.30215     -1942.323          34.700    28563612.363   115013834.38115     -1993.209          35.850    28563614.537   113551798.21514     -1967.855          29.900
C11  22829380.807   118878713.23107      2329.178          47.150    22829375.324    91924613.83908      1800.940          50.600
C12  22328304.751   116269367.58307      -353.187          45.850    22328301.052    89906848.08008      -273.158          51.250
C14  22812444.681   118790415.05207     -1474.563          46.000    22812439.945    91856286.70108     -1140.275          49.900
S20  37330796.027   196174716.86807         6.026          46.600
S33  37961479.002   199488950.44107         5.619          46.600
S35  41571062.278   218457383.40806          .150          40.200
S38  38831180.714   204059222.98008          .926          48.300
> 2016 01 05 00 01 30.0000000  0 30
G03  25018205.903   131471517.68107      1163.795          42.250    25018205.578   102445326.21206       906.846          38.400    25018205.054   102445319.20905       906.846          34.650    25018208.032    98176767.96307       869.103          47.250
G08  24916996.461   130939695.10007      3534.775          42.650    24916998.074   102030934.81306      2754.378          39.650    24916996.513   102030937.81105      2754.378          35.000    24916998.032    97779648.52807      2639.535          47.300
G10  23728996.037   124696788.31107     -2411.995          46.750    23728991.757    97166352.23706     -1879.500          40.850    23728991.318    97166352.23106     -1879.500          36.050    23728991.661    93117758.13007     -1800.991          47.100
G14  20691459.651   108734480.90008     -1054.110          48.850                                                                    20691455.286    84728199.70507      -821.383          45.250
G16  21577126.806   113388651.42508      -310.400          48.750                                                                    21577125.250    88354691.65307      -241.872          43.050
G21  24115613.245   126728429.74407       -87.751          44.150                                                                    24115606.984    98749416.37705       -68.378          35.900
G22  22302983.282   117202997.04308     -1921.459          50.150                                                                    22302975.915    91327010.17907     -1497.233          44.350
G26  21779223.221   114450666.82208     -1433.325          50.450    21779223.418    89182370.64308     -1116.879          49.000    21779223.060    89182370.63407     -1116.880          47.700    21779224.731    85466457.87008     -1070.237          52.700
G27  22245085.900   116898792.07408      3117.745          49.100    22245084.452    91089999.00907      2429.419          47.050    22245083.590    91089995.00507      2429.418          44.950    22245085.422    87294590.16008      2328.226          52.000
G29  24050455.413   126385948.53008     -3030.091          49.200    24050455.652    98482532.21107     -2361.119          43.550    24050455.189    98482534.21107     -2361.120          42.550
G31  22787754.946   119750457.48218       749.279          49.050    22787754.565    93312044.45317       583.855          44.950    22787753.597    93312040.44517       583.855          43.300
G32  23015571.565   120947617.40708         -.036          49.750                                                                    23015570.065    94244913.23607          .027          44.300
R01  23368059.515   124915634.07607      2651.050          44.550    23368065.700    97156604.47305      2061.917          33.850
R06  24581112.346   131169531.68417     -3794.446          45.950    24581117.641   102020760.42815     -2951.236          33.700
R07  20989427.678   112358114.84608     -3204.113          48.400    20989427.626    87389593.03107     -2492.061          46.000
R08  20418361.760   109339375.10808       -99.918          48.100    20418364.324    85041769.11507       -77.697          47.950
R09  24411289.635   130354947.83206      -206.036          39.050
R10  23097212.315   123121231.24207       -73.220          45.550    23097220.577    95760907.37405       -56.953          33.700
R11  23631207.286   126278149.89206        38.205          39.300    23631211.724    98216392.53905        29.717          34.700
R20  21352259.050   114180154.11906     -1025.933          41.950    21352262.142                                          42.400
R21  20368782.674   108997575.82007      2186.123          46.800    20368784.662    84775961.98607      1700.320          46.650
R22  23050558.496   123045490.80607      3941.374          46.950    23050562.106    95702077.76706      3065.518          41.150
E12  24539802.274   128957568.10748      1617.373          51.200    24539801.581    96299515.48008      1207.829          50.350    24539798.659    98811654.34208      1239.379          51.750    24539799.635    97555576.78208      1223.670          48.050
C11  22815984.131   118808954.34007      2321.564          45.250    22815978.850    91870672.35108      1795.130          49.650
C12  22330382.285   116280186.86007      -368.029          45.750    22330378.852    89915214.20308      -284.578          51.200
C14  22820961.489   118834760.78107     -1481.755          44.700    22820957.192    91890576.97708     -1145.761          50.000
S20  37330763.461   196174543.96107         5.742          46.800
S33  37961449.629   199488787.22807         5.169          46.150
S35  41571065.767   218457391.55106         -.882          40.050
S38  38831177.179   204059209.17307          .733          46.600
> 2016 01 05 00 02  0.0000000  0 30
G03  25011594.989   131436775.77406      1152.460          41.900    25011594.656   102418254.38406       898.016          39.200    25011594.175   102418247.39305       898.014          34.450    25011597.108    98150824.09407       860.518          47.100
G08  24896818.389   130833659.51207      3534.420          45.000    24896819.979   101948310.00507      2754.108          42.050    24896818.478   101948313.00405      2754.112          35.700    24896819.975    97700466.54608      2639.295          48.950
G10  23742751.489   124769070.91407     -2406.953          47.650    23742747.165    97222676.27307     -1875.551          43.700    23742746.919    97222676.27006     -1875.551          40.100    23742747.292    93171735.36608     -1797.328          49.750
G14  20697529.258   108766376.94508     -1072.288          49.100                                                                    20697524.845    84753053.82407      -835.547          45.700
G16  21578932.067   113398139.32908      -322.197          50.100                                                                    21578930.581    88362084.71307      -251.079          45.900
G21  24116122.028   126731104.19407       -90.495          44.150                                                                    24116115.749    98751500.39706       -70.516          37.350
G22  22313954.870   117260652.95608     -1922.175          48.400                                                                    22313947.423    91371937.02306     -1497.792          41.650
G26  21787418.409   114493732.18508     -1437.836          48.850    21787418.910    89215927.99407     -1120.378          46.600    21787418.571    89215927.98907     -1120.377          44.350    21787420.306    85498616.99208     -1073.688          51.750
G27  22227310.534   116805382.68708      3109.484          48.950    22227309.037    91017212.59607      2422.979          46.850    22227308.133    91017208.59207      2422.979          44.650    22227309.916    87224836.56908      2322.039          52.100
G29  24067778.593   126476983.08607     -3038.768          46.500    24067779.128    98553468.11006     -2367.877          40.900    24067778.832    98553470.10906     -2367.880          39.400
G31  22783467.763   119727926.12508       752.687          49.000    22783466.968    93294487.57307       586.510          44.750    22783466.001    93294483.56907       586.510          43.600
G32  23015600.929   120947773.56307       -10.492          42.600                                                                    23015599.179    94245034.90004        -8.199          28.500
R01  23353227.064   124836344.41607      2634.713          44.050    23353233.561    97094934.43405      2049.211          34.650
R06  24602424.126   131283253.85615     -3786.170          33.850    24602428.003   102109204.63314     -2944.802          26.400
R07  21007409.127   112454370.44107     -3212.985          47.300    21007408.601    87464458.57507     -2499.005          44.000
R08  20418984.605   109342708.60507      -122.409          47.800    20418986.883    85044361.80107       -95.231          47.400
R09  24412430.845   130361043.52605      -200.284          35.750
R10  23097597.407   123123282.46107       -63.572          42.650    23097606.451    95762504.69915       -49.445          32.000
R11  23630972.277   126276893.67906        45.499          39.300    23630976.706    98215415.53205        35.387          34.800
R20  21358078.096   114211269.57806     -1048.358          39.750    21358081.731    88830980.84217      -815.403          42.100
R21  20356570.980   108932229.77607      2170.291          47.150    20356573.121    84725137.35307      1688.007          46.600
R22  23028398.998   122927200.89407      3944.415          47.250    23028402.028    95610074.55106      3067.886          39.800
E12  24530586.027   128909136.43148      1611.214          50.950    24530585.335    96263349.12908      1203.225          50.250    24530582.324    98774544.50808      1234.585          51.750    24530583.287    97518938.69608      1218.920          48.000
C11  22802631.262   118739424.09607      2313.702          46.750    22802625.975    91816907.37608      1789.173          50.750
C12  22332545.358   116291450.59907      -382.939          46.050    22332541.947    89923924.03608      -296.072          51.050
C14  22829518.138   118879314.76007     -1488.577          46.050    22829514.244    91925028.58908     -1151.098          50.900
S20  37330730.199   196174369.48907         5.840          46.650
S33  37961421.238   199488626.24807         5.454          45.000
S35  41571068.673   218457398.91206         -.157          40.850
S38  38831174.203   204059194.40808          .249          48.800
> 2016 01 05 00 02 30.0000000  0 30
G03  25005049.128   131402378.08606      1140.757          41.750    25005049.385   102391450.79206       888.894          39.200    25005049.004   102391443.80105       888.898          31.950    25005051.781    98125137.23607       851.895          47.250
G08  24876641.134   130727628.28807      3534.106          43.150    24876642.843   101865688.59506      2753.841          40.200    24876641.499   101865691.58805      2753.839          33.350    24876642.571    97621287.71307      2639.133          46.450
G10  23756477.786   124841201.24807     -2401.831          45.000    23756473.526    97278881.44406     -1871.561          39.250    23756473.274    97278881.43605     -1871.562          33.200    23756473.660    93225598.62907     -1793.641          46.550
G14  20703702.921   108798819.04208     -1090.590          49.450                                                                    20703698.383    84778333.46407      -849.807          45.700
G16  21580805.242   113407981.90308      -334.038          50.150                                                                    21580803.562    88369754.07607      -260.292          45.550
G21  24116646.946   126733862.57607       -93.106          45.750                                                                    24116640.633    98753649.82205       -72.548          33.900
G22  22324930.242   117318329.17008     -1922.947          49.750                                                                    22324922.631    91416879.77407     -1498.385          42.050
G26  21795638.953   114536932.16008     -1442.250          49.100    21795639.735    89249591.15107     -1123.799          47.100    21795639.442    89249591.14507     -1123.798          44.950    21795640.969    85530877.77008     -1076.987          52.000
G27  22209582.089   116712220.84208      3101.212          49.350    22209580.916    90944619.06107      2416.534          47.800    22209580.082    90944615.05707      2416.535          45.650    22209581.455    87155267.77408      2315.767          52.100
G29  24085152.063   126568281.42006     -3047.556          41.550    24085152.783    98624609.56005     -2374.710          35.400    24085152.464    98624611.57104     -2374.709          28.600
G31  22779160.735   119705295.09308       755.885          49.050    22779160.142    93276853.03507       589.002          44.500    22779159.164    93276849.03707       589.003          43.050
G32  23015690.228   120948243.27307       -20.764          47.100                                                                    23015688.878    94245396.64915       -16.230          35.650
R01  23338486.204   124757544.85107      2618.471          43.100    23338492.873    97033645.63305      2036.580          34.400
R06  24623690.398   131396734.86317     -3778.884          43.250    24623696.586                                          32.450
R07  21025439.991   112550892.26107     -3221.820          47.250    21025439.199    87539531.46607     -2505.856          45.600
R08  20419732.861   109346715.55007      -144.758          47.250    20419735.199    85047476.35817      -112.603          47.350
R09  24413540.885   130366969.81306      -194.843          37.350
R10  23097929.024   123125048.12807       -54.107          46.450    23097937.302    95763877.84306       -42.081          36.200
R11  23630696.138   126275418.35006        52.686          39.500    23630700.561    98214268.12005        40.979          33.600
R20  21364022.441   114243055.33107     -1070.732          44.850    21364026.254    88855702.79707      -832.788          46.850
R21  20344448.799   108867362.80007      2154.211          47.600    20344451.173    84674685.33907      1675.500          46.800
R22  23006223.244   122808823.89807      3947.307          46.750    23006225.804    95518003.66506      3070.135          39.400
E12  24521404.432   128860887.80648      1605.317          50.950    24521403.705    96227319.51708      1198.719          50.350    24521400.965    98737574.97008      1230.016          51.900    24521401.702    97482439.12408      1214.381          48.300
C11  22789322.820   118670125.12207      2306.065          46.600    22789317.527    91763321.12608      1783.042          50.800
C12  22334793.956   116303159.17007      -397.703          46.000    22334790.349    89932977.84308      -307.605          51.050
C14  22838114.412   118924074.55707     -1495.471          47.050    22838110.650    91959639.53108     -1156.438          51.550
S20  37330696.652   196174195.07207         5.764          46.800
S33  37961392.708   199488467.31907         5.052          45.200
S35  41571069.873   218457407.60506         -.418          41.350
S38  38831171.743   204059181.58207          .273          46.950
> 2016 01 05 00 03  0.0000000  0 30
G03  24998568.407   131368324.22806      1129.631          41.650    24998569.490   102364915.15306       880.226          38.050    24998568.861   102364908.15005       880.228          34.300    24998571.902    98099707.19607       843.381          47.150
G08  24856465.089   130621604.14306      3533.926          41.150    24856466.719   101783072.64206      2753.718          40.200    24856465.350   101783075.63305      2753.717          35.950    24856466.701    97542114.13707      2639.065          47.250
G10  23770174.493   124913178.26907     -2396.573          46.900    23770170.722    97334967.15607     -1867.464          42.850    23770170.578    97334967.15406     -1867.462          38.150    23770170.897    93279347.33208     -1789.660          48.450
G14  20709980.464   108831806.20608     -1108.795          49.650                                                                    20709975.607    84804037.89007      -863.990          45.750
G16  21582745.543   113418176.49708      -345.701          50.150                                                                    21582743.629    88377697.61907      -269.384          45.900
G21  24117188.253   126736706.81807       -96.381          45.900                                                                    24117182.143    98755866.16405       -75.101          35.600
G22  22335908.723   117376022.57208     -1923.456          49.450                                                                    22335901.084    91461835.76407     -1498.801          43.750
G26  21803883.910   114580262.32708     -1446.518          49.350    21803884.841    89283355.75407     -1127.138          46.600    21803884.421    89283355.75307     -1127.138          44.350    21803885.600    85563235.68308     -1080.147          51.850
G27  22191901.496   116619309.57208      3092.748          49.000    22191900.278    90872220.79807      2409.939          46.200    22191899.481    90872216.79907      2409.939          44.050    22191900.458    87085886.11308      2309.565          51.250
G29  24102575.454   126659841.31307     -3056.438          46.800    24102576.322    98695954.57206     -2381.658          40.700    24102575.859    98695956.57606     -2381.655          38.850
G31  22774835.312   119682565.71708       759.292          48.800    22774834.818    93259141.87307       591.658          45.000    22774833.970    93259137.87307       591.658          43.750
G32  23015839.376   120949024.94807       -31.269          46.150                                                                    23015838.791    94246014.03716       -24.365          37.700
R01  23323837.528   124679237.97207      2601.757          42.600    23323843.933    96972740.05305      2023.581          34.300
R06  24644913.611   131509981.87807     -3770.714          43.500    24644918.677   102285561.28415     -2932.778          32.350
R07  21043519.416   112647673.52708     -3230.334          49.050    21043519.234    87614805.52507     -2512.455          47.500
R08  20420606.710   109351395.66708      -167.227          49.150    20420609.067    85051117.23608      -130.037          48.400
R09  24414618.576   130372729.70305      -189.548          34.750
R10  23098206.750   123126529.04306       -44.316          40.300    23098215.723    95765029.54505       -34.454          32.000
R11  23630378.726   126273721.80006        60.297          39.250    23630382.473    98212948.67905        46.899          32.500
R20  21370092.274   114275511.37407     -1093.131          43.600    21370095.716    88880946.11507      -850.212          45.250
R21  20332417.118   108802978.84007      2137.917          47.700    20332419.526    84624608.98007      1662.826          46.850
R22  22984031.561   122690363.40007      3950.002          46.950    22984033.745    95425867.92606      3072.231          37.200
E12  24512258.155   128812824.10348      1598.950          50.900    24512257.508    96191427.95508      1194.093          50.150    24512254.838    98700747.09008      1225.223          51.900    24512255.364    97446079.40308      1209.626          48.350
C11  22776059.371   118601059.71807      2298.162          46.450    22776053.973    91709915.35408      1777.132          50.700
C12  22337128.069   116315312.66907      -412.697          46.350    22337124.259    89942375.68708      -319.009          51.250
C14  22846749.569   118969037.81707     -1502.085          46.000    22846745.750    91994408.00008     -1161.589          50.550
S20  37330663.992   196174019.29407         5.793          46.400
S33  37961363.425   199488310.08907         5.146          46.100
S35  41571071.450   218457415.99206         -.334          41.100
S38  38831168.418   204059168.24207          .571          47.300
> 2016 01 05 00 03 30.0000000  0 28
G03  24992153.848   131334613.97907      1117.909          43.250    24992154.389   102338647.17306       871.088          36.550    24992153.813   102338640.18405       871.091          31.250    24992157.238    98074533.68807       834.967          46.450
G08  24836290.976   130515588.57407      3533.872          42.750    24836292.343   101700462.87906      2753.653          39.600    24836291.019   101700465.87205      2753.654          34.350    24836292.324    97462946.48607      2638.835          46.900
G10  23783841.609   124985000.77707     -2391.367          45.750    23783838.261    97390932.93907     -1863.401          44.100    23783838.158    97390932.93406     -1863.400          40.000    23783838.579    93332981.25708     -1785.660          49.400
G14  20716361.614   108865337.92908     -1126.701          49.700                                                                    20716356.321    84830166.68507      -877.944          46.150
G16  21584752.696   113428722.52108      -357.226          50.200                                                                    21584750.645    88385915.43707      -278.345          46.150
G21  24117746.099   126739638.66607       -99.145          45.250                                                                    24117740.229    98758150.76905       -77.254          35.500
G22  22346890.334   117433731.69508     -1923.733          49.750                                                                    22346882.671    91506804.08307     -1499.006          42.450
G26  21812152.988   114623721.34208     -1450.472          49.900    21812154.139    89317221.32208     -1130.205          48.450    21812153.674    89317221.31707     -1130.206          46.850    21812154.284    85595690.32808     -1083.173          52.550
G27  22174269.185   116526651.66208      3084.515          48.600    22174267.992    90800019.86407      2403.520          47.100    22174267.193    90800015.86107      2403.520          45.200    22174267.977    87016693.60108      2303.223          51.800
G29  24120048.247   126751660.44907     -3064.725          44.900    24120049.216    98767501.60107     -2388.102          43.400    24120048.679    98767503.60707     -2388.102          42.850
G31  22770491.532   119659739.55408       762.616          49.050    22770491.190    93241355.28307       594.247          44.800    22770490.296    93241351.28007       594.247          43.650
G32  23016048.339   120950118.75808       -41.738          49.550                                                                    23016047.229    94246865.87407       -32.488          43.100
R01  23309281.515   124601425.59607      2585.577          43.200    23309287.497    96912219.08505      2010.996          34.950
R07  21061646.893   112744711.64307     -3238.759          47.550    21061646.829    87690279.41507     -2519.053          45.400
R08  20421605.198   109356744.78407      -189.541          47.600    20421607.472    85055277.99307      -147.426          46.150
R09  24415664.438   130378299.25716      -183.895          37.300
R10  23098430.955   123127725.42006       -35.127          40.800    23098440.457    95765959.78105       -27.326          30.250
R11  23630019.528   126271803.09606        67.852          38.650    23630023.228    98211456.41205        52.777          33.200
R20  21376286.819   114308637.17906     -1115.374          38.350    21376290.603    88906710.06506      -867.548          37.950
R21  20320476.690   108739082.02807      2121.757          47.700    20320478.827    84574911.50207      1650.257          46.650
R22  22961824.864   122571822.67707      3952.752          47.000    22961826.802    95333669.80506      3074.370          40.850
E12  24503147.366   128764947.38448      1592.665          50.800    24503146.868    96155676.13908      1189.378          50.200    24503144.069    98664062.59308      1220.363          51.750    24503144.521    97409861.24407      1204.843          47.900
C11  22762841.280   118532230.53807      2290.370          46.000    22762835.907    91656692.21408      1771.227          50.100
C12  22339547.814   116327911.44007      -427.166          46.500    22339543.737    89952117.87408      -330.402          51.100
C14  22855422.963   119014202.10907     -1508.618          45.700    22855419.047    92029331.96808     -1166.658          49.900
S20  37330629.480   196173840.42407         5.964          46.450
S33  37961334.381   199488153.08007         5.143          47.500
S35  41571072.608   218457425.78506          .274          41.200
> 2016 01 05 00 04  0.0000000  0 29
G03  24985804.713   131301246.81007      1106.385          43.150    24985804.751   102312646.59406       862.111          37.000    24985803.848   102312639.57305       862.106          33.550    24985807.758    98049616.42507       826.172          46.800
G08  24816119.613   130409585.53907      3533.054          43.550    24816120.684   101617863.00106      2753.028          39.950    24816119.463   101617866.00705      2753.029          34.550    24816120.534    97383788.22807      2638.465          47.350
G10  23797478.456   125056666.06007     -2386.207          46.300    23797475.795    97446776.09207     -1859.389          43.950    23797475.684    97446776.08106     -1859.390          40.650    23797475.814    93386497.57808     -1781.831          49.400
G14  20722846.142   108899413.68508     -1145.020          49.900                                                                    20722840.535    84856719.38707      -892.220          46.150
G16  21586826.072   113439617.29008      -369.084          49.100                                                                    21586823.888    88394405.04807      -287.593          42.600
G21  24118320.864   126742659.65107      -102.405          45.050                                                                    24118314.927    98760504.83605       -79.796          35.550
G22  22357874.328   117491453.39808     -1924.317          49.550                                                                    22357866.660    91551781.84807     -1499.473          43.000
G26  21820445.625   114667303.95708     -1454.947          50.050    21820446.767    89351182.05507     -1133.720          47.850    21820446.309    89351182.05507     -1133.719          46.450    21820446.267    85628236.21708     -1086.427          52.400
G27  22156685.809   116434250.09008      3075.665          48.400    22156684.532    90728018.65807      2396.622          46.100    22156683.782    90728014.65307      2396.621          43.750    22156684.322    86947692.42608      2296.808          51.100
G29  24137570.102   126843737.41707     -3073.594          43.850    24137571.101    98839250.13606     -2395.005          39.400    24137570.180    98839252.13706     -2395.006          37.750
G31  22766129.622   119636817.82508       765.644          48.900    22766129.380    93223494.24507       596.607          45.000    22766128.435    93223490.23707       596.607          44.250
G32  23016316.190   120951526.05108       -52.124          50.400                                                                    23016314.487    94247963.20017       -40.549          44.600
R01  23294818.539   124524109.95907      2568.812          44.000    23294823.994    96852084.53105      1997.958          35.400
R06  24687224.385   131735765.92217     -3755.061          45.050
R07  21079821.762   112842002.38607     -3247.389          47.850    21079821.794    87765950.15707     -2525.734          46.550
R08  20422728.857   109362762.44308      -211.841          48.200    20422730.894    85059958.86507      -164.749          47.350
R09  24416683.405   130383731.06006      -178.576          38.600    24416687.473   101409579.10214      -138.876          27.250
R10  23098602.157   123128638.00606       -25.757          40.350    23098611.557    95766669.40604       -20.040          29.650
R11  23629618.809   126269660.55406        74.624          40.750    23629622.123    98209790.05205        58.043          33.400
R20  21382607.420   114342433.80907     -1137.730          42.350    21382611.758    88932999.13817      -884.903          44.550
R21  20308628.034   108675676.46408      2105.171          48.100    20308629.769    84525596.13407      1637.356          46.450
R22  22939603.526   122453205.36707      3955.033          46.250    22939605.613    95241412.00306      3076.145          39.950
E12  24494072.362   128717259.08548      1586.475          51.000    24494071.722    96120064.85808      1184.768          50.350    24494069.086    98627522.30908      1215.674          51.950    24494069.571    97373785.46508      1200.204          48.350
C11  22749669.282   118463640.66707      2282.219          46.100    22749663.885    91603654.49808      1764.811          49.700
C12  22342052.917   116340955.75007      -442.307          46.350    22342048.800    89962204.55708      -342.015          50.950
C14  22864134.453   119059565.02607     -1515.491          46.550    22864130.410    92064409.47508     -1171.795          50.450
S20  37330595.043   196173659.33007         5.867          47.050
S33  37961304.516   199487996.97807         4.661          44.300
S35  41571074.191   218457432.66206         -.441          40.750
> 2016 01 05 00 04 30.0000000  0 28
G03  24979520.560   131268222.37206      1095.252          41.500    24979520.444   102286913.02306       853.435          37.650    24979519.881   102286906.03405       853.434          32.250    24979523.634    98024955.08407       817.800          46.400
G08  24795950.706   130303597.65506      3532.658          40.900    24795951.823   101535275.35506      2752.727          38.150    24795950.464   101535278.36905      2752.731          35.950    24795951.779    97304641.79907      2638.057          47.400
G10  23811085.345   125128172.34507     -2380.797          46.650    23811083.135    97502495.20607     -1855.158          44.750    23811083.061    97502495.19406     -1855.157          40.400    23811083.084    93439895.09408     -1778.030          49.850
G14  20729433.940   108934032.79808     -1163.057          49.900                                                                    20729428.209    84883695.35307      -906.279          46.000
G16  21588965.181   113450857.97908      -380.402          50.650                                                                    21588962.721    88403164.03707      -296.427          44.900
G21  24118913.008   126745771.48507      -105.297          44.300                                                                    24118907.141    98762929.73805       -82.049          35.950
G22  22368860.330   117549185.57608     -1924.674          48.650                                                                    22368852.890    91596767.72306     -1499.760          41.350
G26  21828761.872   114711009.09008     -1458.882          49.250    21828763.029    89385238.04607     -1136.798          47.900    21828762.618    89385238.04907     -1136.797          45.900    21828762.276    85660873.24308     -1089.502          52.400
G27  22139151.806   116342107.81208      3067.019          48.700    22139150.339    90656219.48807      2389.887          46.850    22139149.552    90656215.48507      2389.888          43.850    22139150.192    86878884.90508      2290.291          51.800
G29  24155140.248   126936067.16207     -3081.941          45.700    24155141.119    98911194.68207     -2401.534          42.300    24155140.194    98911196.69106     -2401.533          40.600
G31  22761749.770   119613801.81408       768.712          49.200    22761749.587    93205559.74807       598.998          44.800    22761748.802    93205555.74507       598.998          43.500
G32  23016641.640   120953236.40908       -62.095          50.500                                                                    23016639.737    94249294.91007       -48.425          46.550
R01  23280448.515   124447293.21607      2552.301          43.250    23280453.980    96792337.99605      1985.116          35.150
R07  21098042.310   112939538.89207     -3255.270          47.700    21098042.346    87841811.02207     -2531.891          45.200
R08  20423976.751   109369445.21307      -233.872          47.300    20423978.729    85065156.45707      -181.883          46.250
R09  24417672.067   130389001.99906      -173.154          40.050    24417671.588   101413670.92314      -134.673          29.900
R10  23098720.520   123129267.36107       -16.262          47.700    23098729.854    95767176.71916       -12.649          38.350
R11  23629176.049   126267292.24606        82.873          40.950    23629179.054    98207948.09605        64.457          33.900
R20  21389053.269   114376900.99107     -1160.193          42.750    21389056.360    88959807.03206      -902.363          41.600
R21  20296872.018   108612766.26108      2088.659          48.700    20296873.475    84476666.06807      1624.516          46.750
R22  22917368.546   122334515.44107      3957.410          46.750    22917370.938    95149097.88106      3077.997          41.550
E12  24485033.771   128669761.18348      1580.128          50.850    24485032.908    96084595.61608      1179.932          50.250    24485030.476    98591127.79008      1210.678          51.900    24485031.071    97337853.58508      1195.270          48.300
C11  22736543.508   118395291.02107      2274.107          47.100    22736537.987    91550802.14108      1758.703          50.850
C12  22344643.413   116354445.63007      -457.104          46.350    22344639.504    89972635.78408      -353.469          51.100
C14  22872883.659   119105124.61507     -1521.891          45.750    22872879.407    92099639.24608     -1176.860          50.300
S20  37330560.340   196173478.48607         5.938          46.750
S33  37961274.281   199487839.41607         5.482          46.150
S35  41571076.785   218457441.31306         -.059          40.950
> 2016 01 05 00 05  0.0000000  0 28
G03  24973301.514   131235540.38607      1083.659          42.700    24973301.975   102261446.42206       844.403          37.550    24973301.183   102261439.39505       844.395          31.650    24973304.673    98000549.50007       809.304          46.950
G08  24775785.281   130197626.22707      3532.011          42.350    24775785.866   101452700.15206      2752.201          39.350    24775784.501   101452703.15705      2752.199          35.600    24775786.234    97225507.23107      2637.501          47.250
G10  23824661.926   125199518.05407     -2375.264          46.000    23824659.663    97558089.28507     -1850.868          42.750    23824659.681    97558089.28006     -1850.868          38.100    23824659.560    93493172.73208     -1773.904          48.050
G14  20736125.057   108969194.89608     -1181.175          49.800                                                                    20736119.273    84911094.48707      -920.391          46.050
G16  21591169.936   113462442.77108      -391.893          50.750                                                                    21591167.162    88412191.11007      -305.375          44.650
G21  24119522.792   126748975.90907      -108.438          43.950                                                                    24119516.602    98765426.83005       -84.489          34.850
G22  22379847.931   117606926.84908     -1924.946          49.250                                                                    22379841.088    91641760.91607     -1499.951          44.150
G26  21837101.279   114754834.70708     -1462.941          48.800    21837102.432    89419387.84107     -1139.966          47.100    21837102.105    89419387.84907     -1139.967          44.150    21837101.776    85693600.06408     -1092.350          51.750
G27  22121667.615   116250227.99108      3058.399          48.400    22121666.197    90584624.89907      2383.171          46.550    22121665.316    90584620.89807      2383.171          43.500    22121666.270    86810273.45308      2283.762          51.650
G29  24172758.274   127028649.60006     -3090.231          36.000    24172759.474    98983336.37305     -2407.996          32.350    24172758.594    98983338.39405     -2407.991          32.550
G31  22757352.437   119590693.08708       771.808          49.200    22757352.030    93187553.01707       601.412          44.900    22757351.258    93187549.01107       601.411          43.950
G32  23017025.887   120955254.57508       -72.469          48.650                                                                    23017024.248    94250867.28106       -56.505          41.900
R01  23266172.339   124370977.36007      2535.443          44.350    23266177.663    96732981.05705      1972.007          35.550
R07  21116308.856   113037319.79608     -3263.354          48.200    21116309.114    87917862.64507     -2538.164          46.350
R08  20425348.853   109376793.98007      -255.734          47.000    20425349.437                                          45.650
R09  24418627.882   130394113.61505      -167.917          33.600
R10  23098785.709   123129613.60307        -6.780          42.450    23098794.891    95767442.87715        -5.279          31.250
R11  23628690.678   126264696.78306        90.352          40.750    23628693.223    98205929.44705        70.275          32.900
R20  21395624.108   114412038.15107     -1182.472          43.800    21395627.618    88987135.97007      -919.686          44.300
R21  20285209.380   108550355.50608      2071.997          49.100    20285210.309    84428124.50507      1611.558          46.350
R22  22895120.962   122215756.73108      3959.712          48.250    22895123.271    95056730.32707      3079.788          42.850
E12  24476031.880   128622455.67048      1573.444          50.900    24476030.877    96049269.98608      1174.974          50.200    24476028.524    98554880.62608      1205.645          51.850    24476029.244    97302067.18308      1190.338          48.200
C11  22723464.360   118327183.71207      2266.124          47.550    22723458.659    91498136.77308      1752.325          51.100
C12  22347319.515   116368381.36507      -471.933          46.250    22347315.837    89983411.78908      -364.950          51.250
C14  22881669.993   119150878.47407     -1528.348          45.850    22881665.581    92135019.33908     -1181.924          49.650
S20  37330525.482   196173295.88407         5.857          46.650
S33  37961245.030   199487684.24607         5.016          46.550
S35  41571078.010   218457450.40806         -.336          41.750
> 2016 01 05 00 05 30.0000000  0 27
G03  24967147.664   131203200.31807      1072.268          42.400    24967148.029   102236246.20506       835.529          37.950    24967147.067   102236239.21005       835.529          33.250    24967151.231    97976399.29207       800.738          46.750
G08  24755623.632   130091674.01807      3531.026          44.200    24755623.811   101370139.85306      2751.438          41.100    24755622.747   101370142.83906      2751.436          36.200    24755623.945    97146386.90808      2637.052          48.350
G10  23838207.468   125270701.38307     -2370.221          45.700    23838205.305    97613556.69607     -1846.924          43.100    23838205.099    97613556.69106     -1846.923          40.300    23838205.189    93546329.00708     -1769.848          49.500
G14  20742919.271   109004898.98708     -1199.244          49.800                                                                    20742913.471    84938916.02507      -934.471          46.000
G16  21593439.678   113474370.11408      -403.208          49.300                                                                    21593436.883    88421485.39007      -314.174          43.800
G21  24120150.247   126752275.01607      -111.554          44.850                                                                    24120144.332    98767997.64905       -86.922          33.950
G22  22390837.021   117664674.63608     -1924.894          49.400                                                                    22390830.452    91686759.35507     -1499.907          42.800
G26  21845463.554   114798778.96308     -1466.752          48.350    21845464.582    89453630.18007     -1142.921          45.400    21845464.316    89453630.17607     -1142.920          42.650    21845464.059    85726415.71808     -1095.257          50.900
G27  22104233.886   116158613.31308      3049.273          48.750    22104232.449    90513236.88707      2376.057          47.600    22104231.666    90513232.88107      2376.057          45.350    22104232.630    86741859.92208      2277.182          51.900
G29  24190423.716   127121482.45007     -3098.637          44.450    24190425.216    99055740.70917     -2414.522          45.050    24190424.506    99055675.70207     -2414.533          42.250
G31  22752937.605   119567493.12908       774.810          48.900    22752937.217    93169475.19607       603.751          45.150    22752936.478    93169471.19107       603.750          44.400
G32  23017468.225   120957577.75108       -82.494          49.200                                                                    23017466.712    94252677.47206       -64.303          41.200
R01  23251990.304   124295165.14207      2518.664          44.300    23251995.622    96674015.85105      1958.956          35.850
R07  21134619.990   113135339.22907     -3271.223          47.900    21134620.128    87994099.66707     -2544.309          45.600
R08  20426844.601   109384803.04907      -278.081          47.750    20426845.762    85077087.26017      -216.317          45.050
R10  23098797.841   123129677.21606         2.525          41.400    23098807.187    95767489.05814         1.946          27.800
R11  23628162.282   126261872.34506        97.871          41.150    23628164.078    98203732.76405        76.126          32.400
R20  21402320.072   114447844.04907     -1204.742          43.700    21402323.718    89014984.78607      -937.049          44.800
R21  20273640.877   108488448.11608      2055.096          49.250    20273641.355    84379974.47107      1598.415          46.350
R22  22872860.692   122096931.95507      3961.860          47.900    22872863.325    94964311.22507      3081.459          44.200
E12  24467066.910   128575344.81048      1567.192          50.800    24467065.923    96014089.86108      1170.310          50.250    24467063.713    98518782.76608      1200.784          51.900    24467064.393    97266428.19308      1185.506          48.250
C11  22710432.616   118259321.55507      2258.091          46.950    22710426.890    91445660.64708      1746.069          49.800
C12  22350081.392   116382763.07607      -486.823          46.350    22350077.717    89994532.65308      -376.466          51.000
C14  22890493.059   119196824.37707     -1534.583          46.700    22890488.523    92170548.10108     -1186.771          50.200
S20  37330489.943   196173109.26907         6.116          46.200
S33  37961215.708   199487531.68007         5.211          46.700
S35  41571080.157   218457458.34906          .118          41.000
> 2016 01 05 00 06  0.0000000  0 27
G03  24961058.964   131171201.87107      1061.065          42.950    24961058.943   102211312.19906       826.799          38.850    24961058.239   102211305.20005       826.797          34.300    24961062.116    97952504.14907       792.242          47.100
