     2.11           OBSERVATION DATA    G (GPS)             RINEX VERSION / TYPE
teqc  2013Mar15     gpsops              20150502 00:13:34UTCPGM / RUN BY / DATE
Linux 2.4.21-27.ELsmp|Opteron|gcc -static|Linux x86_64|=+   COMMENT
BIT 2 OF LLI FLAGS DATA COLLECTED UNDER A/S CONDITION       COMMENT
BOGT                                                        MARKER NAME
41901M001                                                   MARKER NUMBER
GGN                 JPL                                     OBSERVER / AGENCY
UC120031609         ASHTECH UZ-12       CQ00                REC # / TYPE / VERS
CR620024311         ASH701945E_M    NONE                    ANT # / TYPE
  1744399.0397 -6116037.5577   512731.7532                  APPROX POSITION XYZ
        0.0610        0.0000        0.0000                  ANTENNA: DELTA H/E/N
     1     1                                                WAVELENGTH FACT L1/2
     7    L1    L2    P1    P2    C1    S1    S2            # / TYPES OF OBSERV
    30.0000                                                 INTERVAL
                                                            COMMENT
This data is provided as a public service by NASA/JPL.      COMMENT
No warranty is expressed or implied regarding suitability   COMMENT
for use.  For further information, contact:                 COMMENT
Dave Stowers, NASA/JPL m/s 238-600                          COMMENT
4800 Oak Grove Drive, Pasadena CA 91109 USA                 COMMENT
                                                            COMMENT
Forced Modulo Decimation to 30 seconds                      COMMENT
 SNR is mapped to RINEX snr flag value [0-9]                COMMENT
  L1 & L2: min(max(int(snr_dBHz/6), 0), 9)                  COMMENT
pseudorange smoothing corrections not applied               COMMENT
  2015     5     1     0     0    0.0000000     GPS         TIME OF FIRST OBS
                                                            END OF HEADER
 15  5  1  0  0  0.0000000  0 10G28G11G17G07G04G09G06G30G01G03
  -7935021.12447  -6137890.42446  23367785.6234   23367792.2164   23367784.503
        46.0004         41.0004
  -9082762.22047  -7038177.90246  23561080.7054   23561091.1034   23561080.981
        45.0004         40.0004
  -4715723.38147  -3627422.51146  23347719.8124   23347727.4054   23347720.848
        42.0004         37.0004
 -21088001.24049 -16379345.70748  20332870.2244   20332876.7674   20332869.789
        55.0004         51.0004
   -375919.50046   -263897.27645  24616966.4664   24616978.4824   24616969.719
        39.0004         34.0004
   1150032.42747    955546.20246  23989737.9564   23989748.5344   23989737.187
        45.0004         40.0004
  -6584687.99248  -5125295.88347  22465935.1764   22465948.1674   22465934.569
        49.0004         44.0004
  -4874053.37849  -3786276.17748  20449193.5234   20449201.9054   20449193.346
        56.0004         52.0004
  -9586135.03948  -7419424.36347  22370192.3694   22370204.2174   22370192.289
        50.0004         45.0004
  -5029474.05648  -3877398.69847  22334110.6404   22334121.2744   22334110.189
        50.0004         46.0004
 15  5  1  0  0 30.0000000  0 10G28G11G17G07G04G09G06G30G01G03
  -8005864.13647  -6193092.62346  23354303.0594   23354311.2144   23354303.859
        46.0004         41.0004
  -8988940.11947  -6965069.86946  23578934.9434   23578944.6684   23578934.072
        44.0004         40.0004
  -4703669.55247  -3618029.82946  23350014.1654   23350022.8044   23350013.294
        42.0004         38.0004
 -21034712.39249 -16337821.96048  20343010.7634   20343017.3604   20343010.310
        55.0004         51.0004
 -20748337.65556 -16138508.89055  24637524.7595   24637540.7185   24637526.687
        38.0004         34.0004
   1183146.14447    981349.18746  23996037.9784   23996049.5444   23996037.305
        45.0004         40.0004
  -6661783.84448  -5185370.42547  22451263.6434   22451276.1024   22451263.857
        49.0004         44.0004
  -4887160.16849  -3796489.23948  20446699.3354   20446707.9124   20446699.517
        56.0004         52.0004
  -9493110.80348  -7346937.99747  22387894.5814   22387906.3474   22387894.137
        50.0004         45.0004
  -5042154.57948  -3887279.59147  22331696.9954   22331709.3314   22331695.879
        50.0004         45.0004
 15  5  1  0  1  0.0000000  0 10G28G11G17G07G04G09G06G30G01G03
  -8076843.63947  -6248401.22246  23340796.5834   23340802.4404   23340797.339
        46.0004         41.0004
  -8895113.75247  -6891958.53846  23596790.7834   23596800.2844   23596790.113
        44.0004         39.0004
  -4691610.92747  -3608633.42746  23352310.5904   23352316.6454   23352312.015
        43.0004         38.0004
 -20980921.26949 -16295906.83248  20353246.8744   20353253.3284   20353246.489
        55.0004         51.0004
 -20640274.46046 -16054303.83845  24658090.9044   24658106.5764   24658089.475
        38.0004         33.0004
   1216029.57047   1006972.78346  24002295.7434   24002306.2914   24002294.847
        45.0004         40.0004
  -6738509.64148  -5245156.62247  22436664.3924   22436675.7314   22436663.144
        49.0004         45.0004
  -4899700.03249  -3806260.54748  20444313.1834   20444321.5044   20444313.292
        56.0004         52.0004
  -9399858.19748  -7274273.69347  22405640.9284   22405652.1364   22405641.138
        50.0004         45.0004
  -5054516.06348  -3896911.88347  22329345.5474   22329355.4724   22329345.115
        50.0004         46.0004
 15  5  1  0  1 30.0000000  0 11G28G11G17G07G04G09G06G30G32G01G03
  -8147961.77747  -6303817.84846  23327264.7014   23327271.3534   23327264.821
        46.0004         41.0004
  -8801289.09747  -6818848.56246  23614645.5484   23614652.7254   23614643.990
        44.0004         39.0004
  -4679552.96147  -3599237.50846  23354603.1284   23354610.9984   23354603.268
        43.0004         39.0004
 -20926633.67749 -16253604.83648  20363577.4894   20363583.7804   20363577.026
        55.0004         51.0004
                 -15970087.18745                  24678669.3164   24678660.020
                        33.0004
   1248678.07947   1032413.30946  24008508.9354   24008518.0914   24008508.938
        44.0004         40.0004
  -6814867.33048  -5304655.98347  22422134.3844   22422145.2854   22422132.815
        49.0004         45.0004
  -4911676.75949  -3815593.04648  20442034.2214   20442042.6234   20442034.214
        56.0004         52.0004
                                                                  24734235.377

  -9306384.00748  -7201436.72047  22423428.6094   22423439.0374   22423428.105
        50.0004         45.0004
  -5066560.35048  -3906297.01647  22327052.7634   22327064.0044   22327052.953
        50.0004         46.0004
 15  5  1  0  2  0.0000000  0  9G28G11G17G07G09G06G30G01G03
  -8219213.94547  -6359338.89446  23313703.9334   23313712.5994   23313702.942
        46.0004         41.0004
  -8707465.78147  -6745739.61046  23632498.4794   23632508.4864   23632498.076
        44.0004         40.0004
  -4667494.90947  -3589841.56446  23356898.2094   23356906.8994   23356898.439
        43.0004         39.0004
 -20871849.70949 -16210916.05748  20374002.6834   20374009.6304   20374002.282
        55.0004         51.0004
   1281093.57047   1057672.23146  24014677.5354   24014688.1074   24014676.358
        44.0004         39.0004
  -6890852.42448  -5363865.01647  22407673.4494   22407685.8784   22407672.848
        49.0004         45.0004
  -4923087.64749  -3824484.63248  20439862.6554   20439871.2224   20439862.858
        56.0004         52.0004
  -9212688.58648  -7128427.36247  22441258.8504   22441268.5374   22441258.293
        50.0004         45.0004
  -5078282.81548  -3915431.37247  22324822.9414   22324833.2574   22324822.842
        50.0004         46.0004
 15  5  1  0  2 30.0000000  0  9G28G11G17G07G09G06G30G01G03
  -8290599.67147  -6414963.99546  23300119.8274   23300127.3224   23300119.518
        46.0004         41.0004
  -8613647.16147  -6672634.27746  23650351.8184   23650361.0354   23650351.866
        44.0004         40.0004
  -4655440.18647  -3580448.23046  23359193.1494   23359198.8704   23359192.715
        43.0004         39.0004
 -20816573.06349 -16167843.37848  20384521.7354   20384527.8404   20384521.093
        55.0004         51.0004
   1313274.05147   1082748.03446  24020799.9924   24020810.9124   24020800.270
        44.0004         39.0004
  -6966464.29848  -5422783.21247  22393285.6094   22393296.7354   22393284.329
        50.0004         45.0004
  -4933933.89049  -3832936.23648  20437798.5534   20437807.0964   20437798.237
        56.0004         52.0004
  -9118776.07848  -7055248.85847  22459129.0614   22459139.4324   22459129.065
        49.0004         45.0004
  -5089682.77948  -3924314.42547  22322653.5804   22322663.5194   22322653.327
        50.0004         46.0004
 15  5  1  0  3  0.0000000  0  9G28G11G17G07G09G06G30G01G03
  -8362116.30647  -6470691.10447  23286511.1014   23286519.2314   23286511.702
        46.0004         42.0004
  -8519834.57547  -6599533.67546  23668204.7154   23668214.1654   23668204.126
        44.0004         39.0004
  -4643389.89047  -3571058.38146  23361486.8334   23361492.8494   23361484.759
        43.0004         39.0004
 -20760805.36249 -16124388.05148  20395133.9184   20395140.3634   20395133.629
        55.0004         51.0004
   1345219.53247   1107640.73846  24026877.9124   24026889.4574   24026877.317
        44.0004         40.0004
  -7041700.30248  -5481408.52147  22378968.5504   22378980.5754   22378967.879
        50.0004         45.0004
  -4944214.73249  -3840947.26948  20435842.3184   20435850.9744   20435842.250
        56.0004         52.0004
  -9024648.67148  -6981902.88147  22477041.6134   22477050.9024   22477041.627
        50.0004         45.0004
  -5100757.43348  -3932943.99347  22320545.7324   22320556.7664   22320545.123
        50.0004         46.0004
 15  5  1  0  3 30.0000000  0  9G28G11G17G07G09G06G30G01G03
  -8433763.36947  -6526519.87347  23272875.5384   23272883.1514   23272877.081
        46.0004         42.0004
  -8426031.68247  -6526440.60346  23686054.2004   23686064.5494   23686053.187
        44.0004         39.0004
  -4631347.12347  -3561674.38546  23363776.4764   23363784.4024   23363777.664
        44.0004         40.0004
 -20704550.25349 -16080552.92648  20405838.7034   20405845.1644   20405838.677
        55.0004         51.0004
   1376928.11047   1132348.83946  24032913.7844   24032924.1144   24032915.034
        44.0004         40.0004
  -7116559.82148  -5539740.47047  22364723.3584   22364734.6444   22364722.800
        50.0004         45.0004
  -4953931.42249  -3848518.69648  20433993.1534   20434001.7714   20433993.242
        56.0004         52.0004
  -8930310.56348  -6908392.73547  22494992.7894   22495003.8754   22494992.697
        49.0004         45.0004
  -5111506.10548  -3941319.55047  22318500.5934   22318511.8174   22318500.140
        50.0004         46.0004
 15  5  1  0  4  0.0000000  0  9G28G11G17G07G09G06G30G01G03
  -8505535.66447  -6582446.21647  23259219.3234   23259225.6704   23259218.959
        46.0004         42.0004
  -8332236.92147  -6453353.88546  23703902.4914   23703912.9054   23703902.368
        44.0004         39.0004
  -4619310.68347  -3552295.27846  23366066.4054   23366074.7274   23366066.795
        44.0004         39.0004
 -20647807.13749 -16036337.53448  20416636.3454   20416642.5824   20416636.026
        55.0004         51.0004
   1408402.37047   1156874.33046  24038902.4824   24038913.4164   24038903.326
        45.0004         40.0004
  -7191037.74148  -5597775.08147  22350548.7344   22350561.2294   22350548.791
        49.0004         45.0004
  -4963080.72349  -3855648.00548  20432252.4104   20432260.3784   20432252.174
        56.0004         52.0004
  -8835761.39648  -6834718.10047  22512984.2544   22512995.7584   22512984.978
        49.0004         45.0004
  -5121923.52648  -3949436.99047  22316517.5894   22316528.9334   22316517.654
        50.0004         46.0004
 15  5  1  0  4 30.0000000  0  9G28G11G17G07G09G06G30G01G03
  -8577434.88847  -6638471.50247  23245537.4834   23245542.9234   23245537.485
        46.0004         42.0004
  -8238456.22747  -6380278.13046  23721749.1214   23721757.7774   23721750.113
        43.0004         39.0004
  -4607285.80747  -3542925.17146  23368355.0324   23368363.1874   23368355.436
        45.0004         40.0004
 -20590582.09349 -15991746.61548  20427526.1234   20427532.8564   20427525.696
        55.0004         51.0004
   1439638.16047   1181214.01546  24044846.5814   24044856.1644   24044845.664
        44.0004         40.0004
  -7265135.65948  -5655513.59447  22336449.1094   22336461.7304   22336448.215
        50.0004         45.0004
  -4971666.16549  -3862337.95048  20430618.3134   20430626.9284   20430618.237
        56.0004         52.0004
  -8741007.55348  -6760883.99847  22531016.7114   22531027.7954   22531014.934
        49.0004         45.0004
  -5132011.25448  -3957297.52347  22314598.1164   22314609.1864   22314598.045
        50.0004         46.0004
 15  5  1  0  5  0.0000000  0  9G28G11G17G07G09G06G30G01G03
  -8649458.68747  -6694593.83046  23231831.5414   23231837.8294   23231830.997
        46.0004         41.0004
  -8144691.12647  -6307214.51246  23739593.0124   23739599.4164   23739592.663
        43.0004         39.0004
  -4595274.01047  -3533565.26746  23370642.3114   23370648.7144   23370641.631
        45.0004         41.0004
 -20532877.27349 -15946781.84348  20438507.0494   20438513.5404   20438506.494
        55.0004         50.0004
   1470635.32047   1205367.75946  24050744.0544   24050754.6644   24050743.916
        44.0004         39.0004
  -7338851.32648  -5712954.23747  22322422.2774   22322433.7534   22322421.505
        50.0004         45.0004
  -4979687.31349  -3868588.18048  20429092.0974   20429100.6454   20429091.983
        56.0004         52.0004
  -8646051.52148  -6686892.33747  22549085.9874   22549097.2344   22549085.263
        49.0004         44.0004
  -5141766.85148  -3964899.26247  22312741.8814   22312752.8044   22312741.640
        51.0004         46.0004
 15  5  1  0  5 30.0000000  0  9G28G11G17G07G09G06G30G01G03
  -8721603.28347  -6750810.30347  23218102.7184   23218109.7084   23218102.705
        46.0004         42.0004
  -8050941.78947  -6234163.19246  23757431.0594   23757441.5924   23757430.847
        44.0004         39.0004
  -4583275.30747  -3524215.56546  23372923.6774   23372931.4454   23372923.307
        45.0004         40.0004
 -20474692.92049 -15901443.41048  20449579.3014   20449585.7054   20449578.907
        55.0004         50.0004
   1501395.06547   1229336.48646  24056596.5654   24056607.5134   24056596.508
        44.0004         39.0004
  -7412181.06948  -5770094.17047  22308467.4784   22308478.9314   22308467.015
        50.0004         45.0004
  -4987142.45849  -3874397.37248  20427673.3874   20427682.0694   20427673.171
        56.0004         52.0004
  -8550894.31548  -6612743.91747  22567192.9824   22567204.7714   22567194.075
        49.0004         44.0004
  -5151186.56948  -3972239.26047  22310949.0724   22310961.4184   22310949.013
        51.0004         46.0004
 15  5  1  0  6  0.0000000  0  9G28G11G17G07G09G06G30G01G03
  -8793868.13547  -6807120.47847  23204350.7394   23204357.8574   23204350.169
        46.0004         42.0004
  -7957211.64647  -6161126.80946  23775266.4824   23775277.3834   23775266.056
        44.0004         39.0004
  -4571293.02347  -3514878.64046  23375204.2324   23375211.7324   23375202.885
        45.0004         41.0004
 -20416033.15649 -15855734.52848  20460741.8344   20460748.3624   20460741.483
        55.0004         50.0004
   1531915.45447   1253118.66446  24062405.6644   24062415.6374   24062405.899
        44.0004         40.0004
  -7485124.37448  -5826932.97047  22294587.6024   22294598.6764   22294586.279
        50.0004         45.0004
  -4994033.04549  -3879766.65148  20426362.0754   20426370.4604   20426362.251
        56.0004         52.0004
  -8455540.20948  -6538442.08247  22585338.7684   22585349.9674   22585338.545
        49.0004         44.0004
  -5160269.76848  -3979317.04847  22309221.0194   22309232.2714   22309220.304
        51.0004         46.0004
 15  5  1  0  6 30.0000000  0  9G28G11G17G07G09G06G30G01G03
  -8866251.12447  -6863522.70247  23190576.8764   23190585.1804   23190575.940
        46.0004         42.0004
  -7863502.87747  -6088107.08746  23793098.8474   23793108.9124   23793098.713
        44.0004         39.0004
  -4559328.72847  -3505555.73747  23377481.4264   23377488.7974   23377481.045
        46.0004         42.0004
 -20356901.05349 -15809657.58748  20471994.4654   20472001.0504   20471994.108
        55.0004         50.0004
   1562195.98947   1276714.01346  24068168.0584   24068178.5844   24068169.110
        44.0004         39.0004
  -7557679.41548  -5883469.24747  22280780.3804   22280791.7104   22280780.037
        50.0004         46.0004
  -5000359.12949  -3884696.06748  20425158.3674   20425166.7154   20425158.289
        56.0004         52.0004
  -8359992.05148  -6463989.05247  22603521.8114   22603532.3204   22603519.823
        49.0004         44.0004
  -5169014.47448  -3986131.07447  22307557.0164   22307567.2274   22307556.169
        51.0004         46.0004
 15  5  1  0  7  0.0000000  0  9G28G11G17G07G09G06G30G01G03
  -8938749.29147  -6920014.68147  23176780.2344   23176787.3664   23176781.122
        46.0004         42.0004
  -7769816.09847  -6015104.51246  23810927.9624   23810939.3124   23810927.401
        43.0004         38.0004
  -4547383.28647  -3496247.55947  23379754.5594   23379761.3464   23379754.193
        46.0004         42.0004
 -20297297.94949 -15763213.63348  20483336.3014   20483342.6944   20483336.317
        55.0004         50.0004
   1592237.06347   1300122.74346  24073884.2564   24073895.2324   24073884.343
        44.0004         39.0004
  -7629843.32248  -5939700.74347  22267048.7404   22267058.5454   22267047.532
        50.0004         46.0004
  -5006119.87649  -3889184.95048  20424061.8534   20424070.4104   20424061.705
        56.0004         52.0004
  -8264251.64948  -6389386.18747  22621739.2164   22621751.6854   22621738.196
        49.0004         44.0004
  -5177417.74048  -3992679.04447  22305957.0324   22305968.1614   22305957.250
        51.0004         46.0004
 15  5  1  0  7 30.0000000  0  9G28G11G17G07G09G06G30G01G03
  -9011362.78547  -6976596.53847  23162963.3074   23162970.2544   23162962.313
        46.0004         42.0004
  -7676155.43447  -5942122.24546  23828751.1564   23828761.7504   23828751.112
        43.0004         38.0004
  -4535460.54747  -3486957.04847  23382024.1104   23382030.6614   23382023.548
        47.0004         43.0004
 -20237228.03649 -15716405.93048  20494767.5474   20494773.9694   20494767.422
        55.0004         50.0004
   1622036.37147   1323343.04746  24079554.8414   24079563.9914   24079556.598
        44.0004         40.0004
  -7701616.18648  -5995627.51547  22253389.5154   22253401.8454   22253388.738
        50.0004         45.0004
  -5011317.29749  -3893234.88248  20423073.1504   20423081.5394   20423073.263
        56.0004         52.0004
  -8168323.73848  -6314637.21447  22639994.6704   22640004.8404   22639993.651
        48.0004         44.0004
  -5185479.49548  -3998960.88947  22304423.3074   22304434.5484   22304422.697
        51.0004         46.0004
 15  5  1  0  8  0.0000000  0 10G28G11G17G07G09G06G30G32G01G03
  -9084087.35947  -7033264.98047  23149123.5574   23149129.9754   23149123.741
        47.0004         42.0004
  -7582520.73847  -5869160.22346  23846568.7624   23846579.7704   23846570.470
        42.0004         37.0004
  -4523560.20147  -3477684.01947  23384287.6604   23384294.5974   23384287.270
        47.0004         43.0004
 -20176691.80049 -15669234.85848  20506287.1564   20506294.0164   20506286.736
        55.0004         50.0004
   1651595.38047   1346376.12646  24085179.7864   24085189.5424   24085179.795
        44.0004         40.0004
  -7772994.21048  -6051246.62947  22239807.0484   22239817.2324   22239805.995
        50.0004         45.0004
  -5015949.56949  -3896844.43948  20422191.5404   20422199.9354   20422191.819
        56.0004         52.0004
                                                                  24832840.354

  -8072209.17148  -6239742.80847  22658284.4774   22658295.7134   22658284.420
        48.0004         44.0004
  -5193195.81748  -4004973.58347  22302954.9004   22302965.3664   22302953.340
        50.0004         46.0004
 15  5  1  0  8 30.0000000  0  9G28G11G17G07G09G06G30G01G03
  -9156925.26547  -7090021.69047  23135262.4394   23135269.4044   23135263.720
        47.0004         42.0004
  -7488918.20247  -5796223.30246  23864383.6444   23864390.3364   23864382.420
        42.0004         37.0004
  -4511688.22748  -3468433.08047  23386547.1034   23386554.9564   23386547.014
        48.0004         43.0004
 -20115696.32049 -15621705.94148  20517894.0734   20517900.1934   20517893.524
        55.0004         50.0004
   1680909.27947   1369218.23246  24090757.5974   24090768.3774   24090756.858
        44.0004         39.0004
  -7843979.81848  -6106559.96047  22226298.9704   22226308.9344   22226297.970
        50.0004         45.0004
  -5020021.13449  -3900017.07848  20421416.6694   20421424.9924   20421416.778
        56.0004         52.0004
  -7975915.00748  -6164708.45247  22676610.1024   22676619.2914   22676609.191
        49.0004         44.0004
  -5200569.01648  -4010718.90947  22301551.6684   22301562.5104   22301551.544
        50.0004         46.0004
 15  5  1  0  9  0.0000000  0  9G28G11G17G07G09G06G30G01G03
  -9229868.55947  -7146860.55347  23121382.3424   23121389.2504   23121382.605
        47.0004         42.0004
  -7395344.23147  -5723308.59846  23882186.3464   23882196.9984   23882188.392
        42.0004         38.0004
  -4499840.30548  -3459200.87047  23388800.7394   23388809.1664   23388801.525
        48.0004         43.0004
 -20054238.16349 -15573816.49148  20529589.1644   20529595.7004   20529588.465
        55.0004         50.0004
   1709983.58647   1391873.62746  24096290.8754   24096302.0804   24096291.193
        44.0004         39.0004
  -7914565.31848  -6161561.52647  22212866.2974   22212877.8374   22212865.423
        50.0004         45.0004
  -5023526.31549  -3902748.37848  20420749.7014   20420757.7674   20420749.605
        56.0004         52.0004
  -7879438.24448  -6089531.82147  22694967.5834   22694977.9434   22694966.871
        48.0004         43.0004
  -5207591.30948  -4016190.79747  22300215.7714   22300226.7144   22300214.237
        50.0004         46.0004
 15  5  1  0  9 30.0000000  0 10G28G11G17G07G09G06G30G32G01G03
  -9302918.80847  -7203782.74447  23107481.3494   23107487.3934   23107481.258
        47.0004         42.0004
  -7301804.17447  -5650420.33146  23899990.1024   23899999.3944   23899990.065
        43.0004         38.0004
  -4488022.28447  -3449991.97847  23391050.6664   23391056.1834   23391049.787
        47.0004         43.0004
 -19992323.79749 -15525571.55548  20541371.0054   20541377.7464   20541370.594
        55.0004         50.0004
   1738814.19647   1414339.13646  24101776.2954   24101786.6514   24101777.263
        44.0004         40.0004
  -7984752.59248  -6216252.77247  22199510.2454   22199520.6764   22199509.870
        50.0004         45.0004
  -5026468.93149  -3905041.31948  20420189.6554   20420198.2044   20420189.949
        56.0004         52.0004
                                                                  24857260.043

  -7782785.22248  -6014217.84647  22713360.6454   22713369.8784   22713359.062
        48.0004         43.0004
  -5214264.34548  -4021390.55147  22298946.7984   22298956.2134   22298945.586
        50.0004         46.0004
 15  5  1  0 10  0.0000000  0 10G28G11G17G07G09G06G30G32G01G03
  -9376073.26147  -7260786.13047  23093560.0934   23093565.5164   23093560.959
        47.0004         42.0004
  -7208299.05947  -5577559.30746  23917784.2454   23917792.0974   23917780.430
        42.0004         38.0004
  -4476235.13047  -3440807.15247  23393293.4094   23393298.8474   23393293.395
        47.0004         43.0004
 -19929954.98149 -15476972.50248  20553239.3264   20553246.2064   20553238.840
        55.0004         50.0004
   1767401.37547   1436614.95746  24107215.6324   24107226.3264   24107215.050
        44.0004         39.0004
  -8054539.17548  -6270631.79847  22186230.3134   22186240.8574   22186229.326
        50.0004         45.0004
  -5028848.64249  -3906895.63048  20419736.8814   20419745.4184   20419736.938
        56.0004         52.0004
   -844123.04548   -663585.43645  24865538.5744   24865549.8454   24865537.994
        51.0004         34.0004
  -7685958.13848  -5938768.23847  22731785.4614   22731798.0864   22731784.950
        48.0004         43.0004
  -5220585.61548  -4026316.19647  22297743.2134   22297753.1954   22297742.640
        50.0004         46.0004
 15  5  1  0 10 30.0000000  0 10G28G11G17G07G09G06G30G32G01G03
  -9449330.43147  -7317869.56247  23079619.9754   23079626.2184   23079620.325
        47.0004         42.0004
  -7114831.36747  -5504727.43946  23935567.2114   23935577.1474   23935567.713
        42.0004         38.0004
  -4464480.70347  -3431647.82547  23395530.6054   23395537.7304   23395529.849
        47.0004         43.0004
 -19867135.00349 -15428021.89748  20565193.7794   20565199.9784   20565193.682
        54.0004         50.0004
   1795744.21947   1458700.38646  24112610.1464   24112619.6064   24112609.433
        44.0004         39.0004
  -8123923.81048  -6324697.62347  22173026.4694   22173037.3434   22173026.030
        50.0004         45.0004
  -5030666.21649  -3908311.91648  20419390.7524   20419399.3814   20419391.013
        56.0004         51.0004
   -800245.33747   -629395.07845  24873889.2314   24873905.0404   24873887.674
        45.0004         34.0004
  -7588960.27848  -5863185.54947  22750243.8324   22750255.7334   22750244.279
        48.0004         43.0004
  -5226553.72448  -4030966.64247  22296607.0534   22296617.6514   22296606.862
        50.0004         46.0004
 15  5  1  0 11  0.0000000  0 10G28G11G17G07G09G06G30G32G01G03
  -9522688.66647  -7375031.75247  23065659.7994   23065669.0554   23065660.673
        47.0004         42.0004
  -7021403.50547  -5431926.64746  23953347.3374   23953357.3184   23953346.630
        42.0004         38.0004
  -4452761.57448  -3422515.98447  23397759.7174   23397768.3184   23397759.432
        48.0004         43.0004
 -19803867.01149 -15378722.18448  20577233.2914   20577239.6774   20577233.025
        54.0004         50.0004
   1823841.79547   1480594.66946  24117957.3204   24117967.1264   24117956.991
        44.0004         40.0004
  -8192905.33848  -6378449.33347  22159900.0984   22159910.1334   22159898.725
        50.0004         45.0004
  -5031922.49449  -3909290.82748  20419151.9734   20419160.3834   20419152.043
        56.0004         52.0004
   -756002.56346   -594920.27545  24882310.0714   24882324.9834   24882307.985
        41.0004         34.0004
  -7491794.98448  -5787472.39247  22768733.7734   22768744.8404   22768733.722
        48.0004         43.0004
  -5232167.32148  -4035340.85247  22295538.8804   22295550.1914   22295537.829
        50.0004         46.0004
 15  5  1  0 11 30.0000000  0 10G28G11G17G07G09G06G30G32G01G03
  -9596143.50747  -7432269.22047  23051681.9544   23051689.0154   23051682.086
        47.0004         42.0004
  -6928015.31547  -5359156.71946  23971116.3194   23971128.4594   23971116.736
        42.0004         38.0004
  -4441077.18148  -3413411.21447  23399983.4544   23399990.6534   23399983.835
        49.0004         44.0004
 -19740151.51649 -15329073.77048  20589357.8904   20589364.4954   20589357.517
        54.0004         50.0004
   1851695.95247   1502299.27346  24123257.0334   24123266.9064   24123256.806
        45.0004         40.0004
  -8261479.74548  -6431883.80047  22146850.5104   22146861.4864   22146849.772
        50.0004         46.0004
  -5032615.53949  -3909830.84948  20419019.8954   20419028.3814   20419019.805
        56.0004         51.0004
   -711392.38046   -560159.07145  24890798.3434   24890807.8504   24890795.379
        39.0004         33.0004
  -7394462.80148  -5711629.19247  22787254.9534   22787266.8654   22787254.179
        48.0004         43.0004
  -5237422.27148  -4039435.60847  22294539.1234   22294549.9994   22294537.762
        50.0004         45.0004
 15  5  1  0 12  0.0000000  0 10G28G11G17G07G09G06G30G32G01G03
  -9669694.52147  -7489581.62347  23037684.5444   23037692.4254   23037685.648
        47.0004         42.0004
  -6834670.38847  -5286420.50746  23988881.8394   23988890.8434   23988881.868
        42.0004         37.0004
  -4429431.17748  -3404336.34247  23402198.9664   23402207.0174   23402199.296
        49.0004         44.0004
 -19675993.01049 -15279080.15148  20601567.0754   20601573.5584   20601566.770
        54.0004         50.0004
   1879304.38347   1523812.43246  24128510.9034   24128520.6924   24128510.804
        45.0004         40.0004
  -8329647.30148  -6485001.23847  22133878.5294   22133888.7844   22133876.833
        50.0004         45.0004
  -5032747.69349  -3909933.81448  20418994.8574   20419003.2104   20418994.790
        56.0004         52.0004
   -666416.61346   -525113.05045  24899354.4874   24899364.4454   24899356.787
        38.0004         33.0004
  -7296968.46848  -5635659.65347  22805808.9044   22805818.6154   22805807.733
        48.0004         43.0004
  -5242318.72248  -4043251.00747  22293607.5174   22293617.4544   22293606.954
        50.0004         46.0004
 15  5  1  0 12 30.0000000  0 10G28G11G17G07G09G06G30G32G01G03
  -9743341.81947  -7546969.04247  23023670.9074   23023677.8574   23023670.142
        47.0004         42.0004
  -6741372.22847  -5213720.75846  24006635.5164   24006644.4384   24006635.387
        42.0004         37.0004
  -4417826.43148  -3395293.62747  23404407.5014   23404415.0044   23404407.750
        49.0004         44.0004
 -19611395.57349 -15228744.50848  20613859.5804   20613866.0254   20613859.010
        54.0004         50.0004
   1906665.20047   1545132.63946  24133717.7804   24133727.6144   24133717.898
        45.0004         40.0004
  -8397407.81848  -6537801.49647  22120984.1424   22120994.8004   22120983.456
        50.0004         46.0004
  -5032320.84149  -3909601.19148  20419075.9504   20419084.2074   20419075.827
        56.0004         52.0004
   -621076.85746   -489783.43045  24907987.2244   24907997.6034   24907985.113
        38.0004         33.0004
  -7199316.29148  -5559567.11647  22824391.4064   22824402.3934   22824390.264
        48.0004         43.0004
  -5246856.32048  -4046786.77747  22292742.8574   22292755.3424   22292743.335
        50.0004         46.0004
 15  5  1  0 13  0.0000000  0 10G28G11G17G07G09G06G30G32G01G03
  -9817078.83647  -7604426.38147  23009639.9274   23009644.8864   23009640.450
        47.0004         42.0004
  -6648118.75946  -5141055.86046  24024380.3994   24024391.7724   24024379.946
        41.0004         37.0004
  -4406261.42448  -3386281.88647  23406608.2164   23406615.5984   23406608.908
        49.0004         44.0004
 -19546358.26849 -15178066.09948  20626235.6254   20626241.8734   20626234.817
        54.0004         50.0004
   1933781.96847   1566262.67346  24138877.0814   24138888.2134   24138877.422
        45.0004         40.0004
  -8464755.74148  -6590280.25647  22108168.0624   22108178.7304   22108167.910
        50.0004         46.0004
  -5031331.54549  -3908830.29348  20419264.2134   20419272.7204   20419264.652
        56.0004         52.0004
                                                                  24916681.380

  -7101505.16848  -5483350.71847  22843003.1114   22843014.7874   22843003.949
        48.0004         43.0004
  -5251029.39248  -4050038.50447  22291949.8494   22291960.3264   22291949.228
        50.0004         46.0004
 15  5  1  0 13 30.0000000  0 10G28G11G17G07G09G06G30G32G01G03
  -9890907.48847  -7661955.12347  22995589.6364   22995597.7684   22995589.495
        47.0004         43.0004
  -6554915.61946  -5068430.17446  24042115.2344   24042127.0264   24042115.851
        41.0004         37.0004
  -4394741.62648  -3377305.38047  23408801.9304   23408807.9414   23408801.529
        49.0004         44.0004
 -19480887.75049 -15127050.13348  20638694.4024   20638700.7984   20638694.036
        54.0004         50.0004
   1960650.30447   1587199.12246  24143989.4644   24144000.2744   24143988.835
        45.0004         40.0004
  -8531693.42448  -6642439.35947  22095429.5234   22095441.0664   22095429.069
        51.0004         46.0004
  -5029784.26149  -3907624.59748  20419558.6014   20419567.4214   20419558.696
        56.0004         52.0004
                                                                  24925451.174

  -7003541.90147  -5407015.76947  22861646.3584   22861656.9474   22861645.378
        47.0004         43.0004
  -5254840.13948  -4053007.91447  22291225.2974   22291235.3254   22291223.815
        50.0004         46.0004
 15  5  1  0 14  0.0000000  0  9G28G11G17G07G09G06G30G01G03
  -9964822.36347  -7719551.05447  22981524.7884   22981531.6534   22981525.059
        47.0004         43.0004
  -6461762.00346  -4995843.05046  24059844.7344   24059853.1724   24059842.274
        41.0004         36.0004
  -4383265.45248  -3368362.87047  23410985.4334   23410991.8334   23410984.882
        49.0004         44.0004
 -19414983.64649 -15075696.30048  20651235.5984   20651242.2134   20651235.529
        55.0004         50.0004
   1987273.02847   1607944.21146  24149055.4534   24149066.4314   24149056.074
        45.0004         40.0004
  -8598216.09748  -6694275.07647  22082771.2764   22082781.0024   22082770.271
        50.0004         46.0004
  -5027676.30849  -3905982.02548  20419960.1944   20419968.2594   20419960.022
        56.0004         52.0004
  -6905426.13147  -5330561.98747  22880316.6114   22880328.1694   22880315.774
        47.0004         43.0004
  -5258283.61848  -4055691.13047  22290568.9874   22290580.0704   22290568.337
        50.0004         46.0004
 15  5  1  0 14 30.0000000  0  9G28G11G17G07G09G06G30G01G03
 -10038824.15147  -7777214.69447  22967442.3364   22967450.6244   22967442.046
        47.0004         43.0004
  -6368661.96046  -4923297.69346  24077559.5454   24077568.6904   24077562.182
        41.0004         36.0004
  -4371837.12248  -3359457.60047  23413159.3864   23413166.4014   23413159.080
        49.0004         44.0004
 -19348651.48349 -15024008.92148  20663858.4534   20663864.5884   20663858.581
        55.0004         50.0004
   2013647.30447   1628495.68146  24154075.6394   24154085.0014   24154075.884
        45.0004         40.0004
  -8664324.72148  -6745788.15247  22070191.3674   22070201.9294   22070190.066
        51.0004         46.0004
  -5025010.79949  -3903904.99348  20420467.0234   20420475.5094   20420466.993
        56.0004         52.0004
  -6807163.22247  -5253993.54147  22899015.9724   22899026.9704   22899015.614
        47.0004         43.0004
  -5261360.64548  -4058088.79547  22289983.3564   22289994.8124   22289983.198
        51.0004         46.0004
 15  5  1  0 15  0.0000000  0  9G28G11G17G07G09G06G30G01G03
 -10112910.21547  -7834944.02747  22953342.7664   22953350.7174   22953344.046
        47.0004         43.0004
  -6275617.07846  -4850795.29446  24095265.6314   24095278.5414   24095268.077
        40.0004         36.0004
  -4360458.39648  -3350591.02147  23415325.3724   23415331.8764   23415324.217
        48.0004         44.0004
 -19281893.47049 -14971989.70648  20676561.9554   20676568.2814   20676561.193
        55.0004         50.0004
   2039773.03147   1648853.45146  24159046.1484   24159055.4034   24159046.068
        45.0004         40.0004
  -8730017.47048  -6796977.18947  22057690.1424   22057700.9994   22057689.436
        51.0004         46.0004
  -5021788.04449  -3901393.73648  20421080.3064   20421088.7894   20421080.666
        56.0004         52.0004
  -6708755.77347  -5177312.49447  22917742.2264   22917752.5644   22917742.119
        47.0004         43.0004
  -5264069.27148  -4060199.40147  22289468.3924   22289478.4444   22289467.814
        51.0004         46.0004
 15  5  1  0 15 30.0000000  0  9G28G11G17G07G09G06G30G01G03
 -10187078.95347  -7892737.75347  22939229.8124   22939236.2764   22939230.200
        47.0004         43.0004
  -6182629.75846  -4778337.75846  24112960.7424   24112972.8404   24112961.940
        41.0004         36.0004
  -4349131.23448  -3341764.62047  23417481.3344   23417486.6654   23417480.576
        48.0004         44.0004
 -19214712.93049 -14919641.25048  20689346.1054   20689352.3604   20689345.595
        55.0004         50.0004
   2065649.48747   1669016.97946  24163971.9034   24163980.5754   24163971.113
        44.0004         40.0004
  -8795293.20848  -6847841.27847  22045268.1804   22045278.8074   22045267.450
        51.0004         46.0004
  -5018009.01849  -3898449.02448  20421799.3794   20421807.7864   20421799.363
        56.0004         52.0004
  -6610206.92547  -5100521.26747  22936495.6864   22936506.3654   22936495.518
        47.0004         42.0004
  -5266408.20948  -4062021.93647  22289023.3554   22289033.0534   22289023.027
        50.0004         46.0004
 15  5  1  0 16  0.0000000  0  9G28G11G17G07G09G06G30G01G03
 -10261325.61247  -7950592.22447  22925101.1244   22925107.3324   22925102.435
        47.0004         43.0004
  -6089699.82246  -4705924.97446  24130644.5964   24130656.9504   24130647.905
        40.0004         36.0004
  -4337854.69948  -3332977.67747  23419625.5904   23419632.3054   23419626.091
        48.0004         43.0004
 -19147110.74749 -14866964.23848  20702210.3174   20702216.7954   20702209.857
        55.0004         50.0004
   2091278.53147   1688987.77146  24168847.2654   24168857.6864   24168845.459
        44.0004         39.0004
  -8860148.18748  -6898377.49947  22032926.8054   22032936.7844   22032925.962
        51.0004         46.0004
  -5013672.14149  -3895069.62748  20422624.8824   20422633.1554   20422625.046
        56.0004         52.0004
  -6511517.28847  -5023620.33047  22955275.4424   22955285.5314   22955275.034
        47.0004         43.0004
  -5268373.50548  -4063553.32847  22288648.7294   22288659.8534   22288648.722
        50.0004         46.0004
 15  5  1  0 16 30.0000000  0  9G28G11G17G07G09G06G30G01G03
 -10335649.23547  -8008506.66547  22910957.7434   22910963.3514   22910958.539
        47.0004         43.0004
  -5996829.39546  -4633558.52845  24148315.3894   24148326.0144   24148319.509
        40.0004         35.0004
  -4326631.80848  -3324232.53747  23421762.1024   23421769.5704   23421761.156
        48.0004         43.0004
 -19079090.41249 -14813961.39548  20715154.0144   20715160.6604   20715153.737
        55.0004         50.0004
   2116659.06947   1708764.92246  24173675.8494   24173684.6444   24173676.115
        43.0004         38.0004
  -8924581.77548  -6948585.37947  22020665.0954   22020675.5134   22020665.435
        51.0004         46.0004
  -5008778.97949  -3891256.76048  20423555.7074   20423564.3454   20423555.444
        56.0004         52.0004
  -6412690.57647  -4946612.58047  22974080.4284   22974093.2674   22974080.503
        47.0004         42.0004
  -5269964.43948  -4064793.00047  22288345.9424   22288357.3194   22288344.902
        50.0004         46.0004
 15  5  1  0 17  0.0000000  0  9G28G11G17G07G09G06G30G01G03
 -10410048.68248  -8066480.16547  22896798.9474   22896807.2044   22896800.197
        48.0004         43.0004
  -5904021.56446  -4561240.88846  24165977.5404   24165988.7524   24165978.141
        40.0004         36.0004
  -4315465.57348  -3315531.53647  23423886.6464   23423893.0394   23423886.167
        48.0004         43.0004
 -19010656.14749 -14760636.00448  20728176.8174   20728183.3974   20728176.506
        55.0004         50.0004
   2141789.60547   1728347.22646  24178459.1094   24178469.9714   24178458.574
        42.0004         38.0004
  -8988593.68848  -6998464.67147  22008484.2704   22008494.6014   22008483.252
        51.0004         47.0004
  -5003331.35849  -3887011.85148  20424592.2894   20424600.9034   20424592.326
        56.0004         52.0004
  -6313730.75147  -4869501.10147  22992911.4734   22992924.4434   22992911.265
        47.0004         42.0004
  -5271180.49748  -4065740.56647  22288114.5564   22288125.6464   22288113.581
        50.0004         46.0004
 15  5  1  0 17 30.0000000  0  9G28G11G17G07G09G06G30G01G03
 -10484520.97348  -8124510.43547  22882627.4124   22882635.4524   22882629.035
        48.0004         43.0004
  -5811277.04046  -4488972.55945  24183624.0974   24183638.7294   24183625.329
        40.0004         35.0004
  -4304356.45548  -3306875.04147  23426000.1604   23426005.7344   23426000.747
        48.0004         43.0004
 -18941809.43049 -14706989.22748  20741277.9444   20741284.5544   20741277.439
        55.0004         50.0004
   2166670.95647   1747735.37946  24183194.5284   24183203.7424   24183192.646
        43.0004         39.0004
  -9052181.31648  -7048013.35047  21996383.2404   21996394.2434   21996383.330
        51.0004         47.0004
  -4997328.88349  -3882334.58748  20425734.7384   20425743.1034   20425735.022
        56.0004         52.0004
  -6214639.51047  -4792287.24947  23011769.1124   23011780.4134   23011768.798
        47.0004         42.0004
  -5272018.94848  -4066393.90847  22287955.4724   22287966.0584   22287953.901
        50.0004         46.0004
 15  5  1  0 18  0.0000000  0  9G28G11G17G07G09G06G30G01G03
 -10559062.88148  -8182594.95647  22868442.6674   22868449.4864   22868443.676
        48.0004         43.0004
  -5718597.68846  -4416755.07745  24201263.6984   24201274.0904   24201262.966
        40.0004         35.0004
  -4293305.72648  -3298264.04447  23428102.7104   23428109.3554   23428101.436
        48.0004         43.0004
 -18872552.94149 -14653023.14348  20754456.9524   20754463.5394   20754456.412
        55.0004         50.0004
   2191303.10947   1766929.35746  24187881.9454   24187892.3644   24187880.714
        43.0004         39.0004
  -9115342.93548  -7097230.09147  21984364.5324   21984374.2184   21984363.511
        51.0004         47.0004
  -4990772.06349  -3877225.37248  20426982.6244   20426991.0694   20426982.581
        56.0004         52.0004
  -6115419.39147  -4714972.94647  23030651.4734   23030662.4944   23030650.778
        47.0004         42.0004
  -5272477.92248  -4066751.54447  22287868.2174   22287877.9004   22287867.047
        50.0004         46.0004
 15  5  1  0 18 30.0000000  0  9G28G11G17G07G09G06G30G01G03
 -10633674.89748  -8240734.12247  22854245.6164   22854251.0574   22854246.166
        48.0004         43.0004
  -5625987.40146  -4344591.37446  24218887.9004   24218896.8874   24218887.597
        40.0004         36.0004
  -4282317.25348  -3289701.55347  23430194.3754   23430200.3944   23430193.883
        48.0004         44.0004
 -18802891.80749 -14598741.75348  20767712.7184   20767719.3914   20767712.310
        55.0004         50.0004
   2215683.59847   1785927.23946  24192519.9264   24192530.6424   24192521.135
        43.0004         38.0004
  -9178079.36748  -7146115.50047  21972426.0654   21972436.3084   21972425.743
        51.0004         47.0004
  -4983663.80449  -3871686.45448  20428334.7024   20428343.5444   20428334.629
        56.0004         52.0004
  -6016075.33247  -4637562.08147  23049555.3054   23049564.8764   23049554.857
        47.0004         42.0004
  -5272558.01848  -4066813.93947  22287852.6504   22287863.6534   22287853.080
        50.0004         46.0004
 15  5  1  0 19  0.0000000  0  9G28G11G17G07G09G06G30G01G03
 -10708352.23348  -8298924.17847  22840034.5874   22840041.3234   22840035.093
        48.0004         43.0004
  -5533444.99146  -4272480.51246  24236498.7104   24236507.8084   24236499.102
        41.0004         37.0004
  -4271390.01848  -3281186.76647  23432272.8354   23432280.1294   23432272.590
        48.0004         43.0004
 -18732826.29349 -14544145.26448  20781045.7494   20781052.4664   20781045.025
        54.0004         50.0004
   2239814.74947   1804730.81946  24197111.2174   24197122.1104   24197110.364
        43.0004         38.0004
  -9240386.58148  -7194666.47047  21960569.5854   21960579.9554   21960568.012
        51.0004         47.0004
  -4976002.36849  -3865716.49548  20429793.1414   20429801.2874   20429793.118
        56.0004         52.0004
  -5916607.62147  -4560054.86547  23068482.9474   23068494.2734   23068482.396
        46.0004         42.0004
  -5272255.08848  -4066577.89147  22287911.0624   22287920.8324   22287910.265
        50.0004         46.0004
 15  5  1  0 19 30.0000000  0  9G28G11G17G07G09G06G30G01G03
 -10783095.65548  -8357165.73247  22825812.4804   22825818.1654   22825811.854
        48.0004         43.0004
  -5440976.08446  -4200426.97246  24254094.5564   24254104.8794   24254094.590
        41.0004         36.0004
  -4260529.20648  -3272723.75947  23434340.4154   23434347.6954   23434339.514
        48.0004         43.0004
 -18662362.97949 -14489238.79348  20794454.6944   20794461.1094   20794454.465
        54.0004         50.0004
   2263692.98047   1823337.30846  24201657.0334   24201666.6874   24201656.405
        43.0004         38.0004
  -9302266.57048  -7242884.52647  21948793.7734   21948803.4004   21948793.247
        51.0004         47.0004
  -4967791.92949  -3859318.74348  20431355.3544   20431363.6224   20431355.280
        56.0004         52.0004
  -5817022.36547  -4482456.06447  23087433.4804   23087444.9604   23087432.841
        47.0004         42.0004
  -5271570.92548  -4066044.76347  22288040.8004   22288051.2384   22288039.703
        50.0004         46.0004
 15  5  1  0 20  0.0000000  0  9G28G11G17G07G09G06G30G01G03
 -10857899.46148  -8415454.34747  22811577.3084   22811581.8904   22811577.497
        48.0004         43.0004
  -5348578.61546  -4128429.09946  24271677.7494   24271687.0884   24271678.032
        41.0004         36.0004
  -4249733.29248  -3264311.32747  23436394.5524   23436401.6634   23436394.650
        48.0004         43.0004
 -18591501.47749 -14434022.05448  20807938.7784   20807945.8444   20807938.554
        54.0004         50.0004
   2287321.59047   1841749.27446  24206153.5614   24206163.2264   24206154.939
        42.0004         38.0004
  -9363714.44248  -7290765.87347  21937100.8704   21937110.7744   21937099.488
        51.0004         47.0004
  -4959029.86949  -3852491.15048  20433022.5144   20433031.3894   20433022.823
        56.0004         52.0004
  -5717318.91847  -4404765.16747  23106407.0534   23106418.4394   23106406.165
        47.0004         42.0004
  -5270500.52648  -4065210.67947  22288244.5154   22288254.8334   22288244.421
        50.0004         46.0004
 15  5  1  0 20 30.0000000  0  9G28G11G17G07G09G06G30G01G03
 -10932763.97948  -8473790.26247  22797329.9954   22797336.3954   22797330.327
        48.0004         43.0004
  -5256256.74346  -4056490.10146  24289244.8294   24289256.2464   24289245.065
        41.0004         37.0004
  -4239005.50847  -3255951.98747  23438435.4674   23438442.4144   23438435.934
        47.0004         42.0004
 -18520246.26949 -14378498.52548  20821498.4714   20821504.8764   20821497.930
        54.0004         50.0004
   2310698.33847   1859964.98746  24210600.7044   24210610.5304   24210600.631
        42.0004         37.0004
  -9424730.87748  -7338311.04447  21925489.5014   21925499.7814   21925488.855
        52.0004         47.0004
  -4949719.05749  -3845235.95848  20434794.2824   20434803.0034   20434794.246
        56.0004         52.0004
  -5617502.00947  -4326985.85146  23125400.7864   23125412.4234   23125400.307
        46.0004         41.0004
  -5269044.37648  -4064076.00547  22288521.1174   22288531.6004   22288520.207
        50.0004         46.0004
 15  5  1  0 21  0.0000000  0  9G28G11G17G07G09G06G30G01G03
 -11007683.85048  -8532169.30147  22783073.8454   22783080.5214   22783073.643
        48.0004         43.0004
  -5164009.23347  -3984609.04746  24306799.2444   24306809.7904   24306800.538
        42.0004         37.0004
  -4228344.94547  -3247645.00547  23440464.2084   23440471.4404   23440463.406
        47.0004         43.0004
 -18448597.59549 -14322668.40548  20835133.0134   20835138.9204   20835132.653
        54.0004         50.0004
   2333825.69147   1877986.34446  24215002.0054   24215010.7794   24215001.963
        42.0004         37.0004
  -9485311.90348  -7385516.92647  21913961.2504   21913971.1484   21913961.196
        52.0004         47.0004
  -4939857.73049  -3837551.80348  20436671.2034   20436679.4994   20436671.337
        56.0004         52.0004
  -5517571.76447  -4249118.22747  23144417.6744   23144429.0034   23144417.313
        46.0004         42.0004
  -5267198.29248  -4062637.49047  22288872.8594   22288882.6394   22288872.053
        50.0004         46.0004
 15  5  1  0 21 30.0000000  0  9G28G11G17G07G09G06G30G01G03
 -11082659.98448  -8590592.20047  22768806.1544   22768812.4404   22768806.517
        48.0004         44.0004
  -5071841.09846  -3912789.85746  24324339.6764   24324349.1524   24324339.230
        41.0004         37.0004
  -4217756.57148  -3239394.27247  23442478.9864   23442486.0794   23442479.596
        48.0004         43.0004
 -18376562.20349 -14266536.93748  20848840.7634   20848847.5544   20848840.251
        54.0004         50.0004
   2356700.17247   1895810.69846  24219356.1684   24219363.1434   24219355.890
        42.0004         37.0004
  -9545459.40448  -7432384.99747  21902515.9964   21902525.4614   21902515.181
        52.0004         47.0004
  -4929450.07049  -3829441.93348  20438651.7754   20438659.9334   20438651.703
        56.0004         52.0004
  -5417534.20947  -4171166.98347  23163453.6294   23163464.9114   23163453.985
        46.0004         42.0004
  -5264964.03348  -4060896.50847  22289298.2734   22289308.5744   22289297.615
        50.0004         46.0004
 15  5  1  0 22  0.0000000  0  9G28G11G17G07G09G06G30G01G03
 -11157690.69248  -8649057.61247  22754528.8404   22754534.2214   22754528.763
        48.0004         44.0004
  -4979754.27346  -3841034.00445  24341860.7724   24341870.3364   24341862.000
        40.0004         35.0004
  -4207242.26648  -3231201.26747  23444479.7194   23444487.1104   23444480.333
        48.0004         44.0004
 -18304143.19149 -14210106.55648  20862621.6674   20862628.3494   20862621.072
        54.0004         50.0004
   2379321.36147   1913437.65146  24223659.2964   24223668.4044   24223659.384
        42.0004         37.0004
  -9605172.47448  -7478914.55147  21891152.5074   21891162.4294   21891151.678
        52.0004         47.0004
  -4918497.39049  -3820907.37048  20440735.8114   20440744.2644   20440735.651
        56.0004         52.0004
  -5317392.41947  -4093134.53247  23182511.0564   23182520.3054   23182510.382
        46.0004         42.0004
  -5262340.47648  -4058852.15947  22289796.5624   22289808.0704   22289796.140
        51.0004         46.0004
 15  5  1  0 22 30.0000000  0  9G28G11G17G07G09G06G30G01G03
 -11232770.35948  -8707561.17947  22740240.6004   22740247.6914   22740240.957
        48.0004         44.0004
  -4887747.40446  -3769340.48546  24359369.3904   24359384.9364   24359370.177
        40.0004         36.0004
  -4196800.49348  -3223064.75747  23446467.9384   23446474.0434   23446468.023
        48.0004         44.0004
 -18231340.01949 -14153376.81948  20876475.6334   20876482.0374   20876475.193
        54.0004         49.0004
   2401692.18647   1930869.57946  24227915.6004   24227925.6004   24227915.485
        42.0004         37.0004
  -9664446.62048  -7525102.08447  21879872.9244   21879882.2734   21879872.022
        52.0004         47.0004
  -4906997.49149  -3811946.40348  20442923.9114   20442932.5894   20442924.413
        56.0004         52.0004
  -5217146.04147  -4015020.56846  23201587.3324   23201597.6564   23201587.266
        46.0004         41.0004
  -5259322.97448  -4056500.85647  22290371.2314   22290381.6834   22290371.110
        51.0004         46.0004
 15  5  1  0 23  0.0000000  0  9G28G11G17G07G09G06G30G01G03
 -11307899.79948  -8766103.51847  22725944.2224   22725951.0014   22725944.763
        48.0004         44.0004
  -4795825.63746  -3697713.26746  24376862.1554   24376875.3044   24376862.724
        40.0004         36.0004
  -4186436.34048  -3214988.74247  23448439.4634   23448446.3544   23448439.928
        48.0004         43.0004
 -18158159.25149 -14096352.85348  20890401.0094   20890408.0994   20890400.587
        54.0004         49.0004
   2423809.33947   1948103.74646  24232126.0664   24232135.6144   24232125.019
        42.0004         37.0004
  -9723283.91448  -7570949.21747  21868676.3724   21868686.1394   21868675.742
        52.0004         47.0004
  -4894954.64149  -3802562.36048  20445215.8434   20445224.2034   20445215.927
        56.0004         52.0004
  -5116801.09347  -3936829.80146  23220681.5834   23220694.2964   23220680.608
        46.0004         41.0004
  -5255913.40848  -4053844.04947  22291020.1444   22291030.6264   22291019.610
        51.0004         46.0004
 15  5  1  0 23 30.0000000  0  9G28G11G17G07G09G06G30G01G03
 -11383073.10448  -8824680.05547  22711639.7784   22711645.7194   22711639.471
        49.0004         44.0004
  -4703987.03646  -3626150.80246  24394337.4994   24394351.4244   24394336.314
        40.0004         36.0004
  -4176147.45848  -3206971.39947  23450397.2464   23450403.8524   23450397.143
        48.0004         43.0004
 -18084600.30249 -14039034.20948  20904399.0774   20904405.9374   20904399.237
        54.0004         49.0004
   2445676.22546   1965142.93346  24236286.4984   24236295.1514   24236286.881
        41.0004         36.0004
  -9781679.44048  -7616452.10847  21857563.6884   21857574.1914   21857563.091
        52.0004         47.0004
  -4882366.25049  -3792753.21848  20447611.2604   20447619.8424   20447611.342
        56.0004         52.0004
  -5016356.66647  -3858561.52247  23239794.8764   23239808.2174   23239794.777
        46.0004         42.0004
  -5252106.72148  -4050877.77947  22291744.3584   22291755.1784   22291744.429
        51.0004         46.0004
 15  5  1  0 24  0.0000000  0  9G28G11G17G07G09G06G30G01G03
 -11458290.22548  -8883290.73247  22697326.9144   22697332.2544   22697326.262
        49.0004         44.0004
  -4612235.13546  -3554655.93045  24411798.1614   24411809.3794   24411798.325
        40.0004         35.0004
  -4165937.99348  -3199015.93747  23452340.0194   23452347.4844   23452339.565
        48.0004         43.0004
 -18010668.43649 -13981424.98348  20918468.0434   20918474.4424   20918467.665
        54.0004         49.0004
   2467290.44646   1981985.21746  24240399.4304   24240407.4524   24240400.887
        41.0004         37.0004
  -9839634.29148  -7661611.62847  21846535.6824   21846545.4184   21846534.807
        52.0004         47.0004
  -4869235.69049  -3782521.61148  20450109.7094   20450118.3134   20450109.731
        56.0004         52.0004
  -4915817.81547  -3780219.66047  23258927.3934   23258939.1314   23258926.660
        46.0004         42.0004
  -5247903.80248  -4047602.76547  22292543.5654   22292555.4554   22292543.178
        51.0004         46.0004
 15  5  1  0 24 30.0000000  0  9G28G11G17G07G09G06G30G01G03
 -11533550.56348  -8941935.08047  22683003.8554   22683011.0994   22683004.614
        49.0004         44.0004
  -4520573.42146  -3483231.32045  24429239.6034   24429252.6794   24429238.184
        39.0004         34.0004
  -4155811.05348  -3191124.77647  23454267.9304   23454273.8394   23454266.754
        48.0004         43.0004
 -17936368.23949 -13923528.73748  20932606.7094   20932613.3724   20932606.117
        54.0004         49.0004
   2488650.28746   1998629.31046  24244461.8574   24244473.2194   24244462.439
        41.0004         36.0004
  -9897148.90948  -7706428.09847  21835590.6704   21835600.7684   21835589.636
        52.0004         47.0004
  -4855565.67049  -3771869.64148  20452711.2864   20452719.9304   20452711.477
        56.0004         52.0004
  -4815188.88447  -3701807.61647  23278077.3494   23278087.5734   23278077.530
        46.0004         42.0004
  -5243304.85048  -4044019.16447  22293418.9974   22293429.8474   22293418.300
        51.0004         46.0004
 15  5  1  0 25  0.0000000  0  9G28G11G17G07G09G06G30G01G03
 -11608840.79748  -9000602.72147  22668675.7224   22668682.4984   22668676.928
        48.0004         43.0004
 -24909452.80246 -19370669.90845  24446669.1414   24446681.1264   24446668.927
        39.0004         34.0004
  -4145757.33148  -3183290.67447  23456180.0314   23456186.9054   23456180.605
        48.0004         43.0004
 -17861692.21449 -13865339.64448  20946817.2334   20946823.7844   20946816.875
        54.0004         49.0004
   2509766.47946   2015083.55146  24248482.8084   24248493.1674   24248482.512
        41.0004         36.0004
  -9954211.26648  -7750892.16747  21824732.7394   21824741.5384   21824731.853
        52.0004         47.0004
  -4841346.42649  -3760789.70948  20455417.1084   20455425.6164   20455417.182
        56.0004         52.0004
  -4714461.73647  -3623319.05446  23297244.2144   23297256.1184   23297243.269
        46.0004         41.0004
  -5238297.71948  -4040117.50247  22294372.5124   22294382.9054   22294371.584
        51.0004         46.0004
 15  5  1  0 25 30.0000000  0  9G28G11G17G07G09G06G30G01G03
 -11684173.74448  -9059303.64847  22654341.7424   22654347.6554   22654341.665
        48.0004         44.0004
 -24817970.07546 -19299384.83245  24464075.2384   24464086.7784   24464076.709
        38.0004         34.0004
  -4135793.48148  -3175526.57947  23458076.8934   23458082.2714   23458075.781
        48.0004         43.0004
 -17786658.38049 -13806871.73548  20961095.2884   20961102.3454   20961094.841
        54.0004         49.0004
   2530623.80546   2031336.11846  24252452.1854   24252461.9904   24252453.018
        41.0004         36.0004
 -10010835.37348  -7795014.72747  21813956.7244   21813966.7354   21813955.530
        52.0004         47.0004
  -4826594.29949  -3749294.54548  20458224.3264   20458232.8584   20458224.414
        56.0004         52.0004
  -4613654.29547  -3544767.90546  23316428.5654   23316439.1754   23316428.753
        46.0004         41.0004
  -5232896.20948  -4035908.51747  22295399.6484   22295410.2714   22295399.490
        51.0004         46.0004
 15  5  1  0 26  0.0000000  0  9G28G11G17G07G09G06G30G01G03
 -11759542.86648  -9118032.75947  22639999.5154   22640006.7164   22639999.436
        49.0004         44.0004
 -24726582.68446 -19228173.95345  24481468.2724   24481478.4244   24481466.758
        38.0004         34.0004
  -4125916.67348  -3167830.33047  23459954.6684   23459963.0934   23459954.622
        48.0004         43.0004
 -17711265.41949 -13748123.98548  20975442.6974   20975448.8804   20975442.463
        54.0004         49.0004
   2551226.38146   2047390.10346  24256371.5244   24256379.6714   24256371.119
        41.0004         36.0004
 -10067015.87748  -7838791.63447  21803265.8694   21803275.3214   21803264.623
        52.0004         47.0004
  -4811306.22149  -3737381.75548  20461133.3004   20461142.2784   20461133.482
        56.0004         52.0004
  -4512765.17647  -3466153.07147  23335627.1274   23335638.0174   23335625.697
        46.0004         42.0004
  -5227094.76048  -4031387.90347  22296503.7954   22296514.5464   22296503.682
        50.0004         46.0004
 15  5  1  0 26 30.0000000  0  9G28G11G17G07G09G06G30G01G03
 -11834937.28848  -9176781.59847  22625651.6134   22625658.8514   22625652.663
        49.0004         44.0004
 -24635283.96946 -19157032.20845  24498843.6254   24498851.3064   24498843.909
        39.0004         34.0004
