     2.11           OBSERVATION DATA    G (GPS)             RINEX VERSION / TYPE
teqc  2013Mar15     gpsops              20150502 00:09:04UTCPGM / RUN BY / DATE
Linux 2.4.21-27.ELsmp|Opteron|gcc -static|Linux x86_64|=+   COMMENT
BIT 2 OF LLI FLAGS DATA COLLECTED UNDER A/S CONDITION       COMMENT
BREW                                                        MARKER NAME
40473M001                                                   MARKER NUMBER
GGN                 JPL                                     OBSERVER / AGENCY
ZR20012101          ASHTECH UZ-12       CQ00                REC # / TYPE / VERS
CR620013703         ASH701945C_M    SCIT                    ANT # / TYPE
 -2112007.1404 -3705351.8421  4726827.1606                  APPROX POSITION XYZ
        0.0083        0.0000        0.0000                  ANTENNA: DELTA H/E/N
     1     1                                                WAVELENGTH FACT L1/2
     7    L1    L2    P1    P2    C1    S1    S2            # / TYPES OF OBSERV
    30.0000                                                 INTERVAL
This data is provided as a public service by NASA/JPL.      COMMENT
No warranty is expressed or implied regarding suitability   COMMENT
for use.  For further information, contact:                 COMMENT
Dave Stowers, NASA/JPL m/s 238-600                          COMMENT
4800 Oak Grove Drive, Pasadena CA 91109 USA                 COMMENT
                                                            COMMENT
Forced Modulo Decimation to 30 seconds                      COMMENT
 SNR is mapped to RINEX snr flag value [0-9]                COMMENT
  L1 & L2: min(max(int(snr_dBHz/6), 0), 9)                  COMMENT
pseudorange smoothing corrections not applied               COMMENT
  2015     5     1     0     0    0.0000000     GPS         TIME OF FIRST OBS
                                                            END OF HEADER
 15  5  1  0  0  0.0000000  0  9G15G04G13G24G11G01G30G17G28
 -11569913.15048  -8974354.54247  22848797.1034   22848799.9944   22848796.794
        49.0004         44.0004
  -4684163.57247  -3635175.35946  23906416.2374   23906421.0304   23906416.719
        42.0004         38.0004
 -14697295.35648 -11400401.59347  22160588.4814   22160592.2874   22160588.473
        49.0004         45.0004
  -4418799.23547  -3402564.48846  24301930.6404   24301938.0184   24301929.699
        42.0004         38.0004
 -10557744.68747  -8180806.04346  23249396.7094   23249400.9844   23249396.849
        45.0004         40.0004
 -10464784.83448  -8102434.45847  22909551.7654   22909557.1504   22909550.857
        48.0004         43.0004
  -7076582.47048  -5463429.51247  22799473.1334   22799478.8284   22799472.626
        49.0004         44.0004
 -16115445.19749 -12534274.30248  20902042.3724   20902044.7984   20902041.614
        55.0004         51.0004
 -20786715.16749 -16142387.78048  21158942.7084   21158945.2964   21158942.882
        54.0004         49.0004
 15  5  1  0  0 30.0000000  0  9G15G04G13G24G11G01G30G17G28
 -11547394.32048  -8956807.44547  22853082.7444   22853085.8054   22853081.666
        49.0004         45.0004
  -4632432.10947  -3594865.15646  23916259.9504   23916266.4644   23916262.545
        43.0004         38.0004
 -14623359.81848 -11342789.55047  22174658.2244   22174661.5624   22174657.577
        49.0004         45.0004
  -4521996.22047  -3482977.67246  24282293.8744   24282301.3604   24282294.241
        43.0004         39.0004
 -10496000.02647  -8132693.37446  23261146.5064   23261148.9644   23261147.624
        45.0004         40.0004
 -10463645.33247  -8101546.51447  22909768.4454   22909774.7874   22909768.514
        47.0004         43.0004
  -6980274.72648  -5388384.58047  22817799.4154   22817804.1754   22817798.667
        48.0004         44.0004
 -16153273.51249 -12563750.88048  20894843.7854   20894846.3404   20894842.987
        55.0004         51.0004
 -20751500.10649 -16114947.47848  21165644.2714   21165646.0464   21165644.089
        54.0004         49.0004
 15  5  1  0  1  0.0000000  0  9G15G04G13G24G11G01G30G17G28
 -11524324.85248  -8938831.27547  22857472.7064   22857475.3914   22857470.612
        49.0004         45.0004
  -4580149.44747  -3554125.47146  23926209.5194   23926214.4464   23926207.740
        42.0004         37.0004
 -14548961.88148 -11284817.18747  22188815.8004   22188819.7154   22188815.303
        49.0004         45.0004
  -4625069.85847  -3563294.70246  24262679.9054   24262685.8244   24262679.698
        43.0004         39.0004
 -10433730.45647  -8084171.66946  23272995.7164   23272998.2154   23272994.695
        45.0004         40.0004
 -10461894.30748  -8100182.07747  22910102.5034   22910108.5424   22910102.263
        48.0004         43.0004
  -6883710.10448  -5313139.48547  22836174.0884   22836181.1084   22836174.608
        48.0004         44.0004
 -16190617.52149 -12592850.08048  20887737.5314   20887739.7054   20887736.914
        55.0004         51.0004
 -20716063.70049 -16087334.69548  21172387.2764   21172389.4574   21172387.436
        54.0004         49.0004
 15  5  1  0  1 30.0000000  0  9G15G04G13G24G11G01G30G17G28
 -11500706.05648  -8920427.05047  22861967.1914   22861971.0784   22861965.623
        49.0004         44.0004
  -4527317.31147  -3512957.61646  23936261.9634   23936267.8794   23936262.388
        42.0004         37.0004
 -14474104.74348 -11226487.00347  22203059.9004   22203064.1584   22203060.411
        49.0004         45.0004
  -4728018.44347  -3643514.34446  24243088.8254   24243096.5094   24243087.006
        44.0004         39.0004
 -10370937.98547  -8035242.50446  23284943.5564   23284948.1094   23284945.404
        45.0004         40.0004
 -10459531.52548  -8098340.94747  22910551.9234   22910558.4694   22910549.447
        48.0004         43.0004
  -6786890.27148  -5237695.53247  22854598.8314   22854605.1244   22854599.494
        48.0004         43.0004
 -16227476.44449 -12621571.29248  20880723.3404   20880726.0294   20880722.656
        55.0004         51.0004
 -20680406.38749 -16059549.77848  21179172.7844   21179174.6884   21179172.586
        54.0004         49.0004
 15  5  1  0  2  0.0000000  0  9G15G04G13G24G11G01G30G17G28
 -11476539.00248  -8901595.60547  22866565.8204   22866569.4094   22866565.301
        49.0004         44.0004
  -4473937.57747  -3471363.03846  23946422.2634   23946426.2844   23946420.465
        42.0004         38.0004
 -14398790.92748 -11167800.97347  22217393.8444   22217395.9814   22217392.550
        49.0004         44.0004
  -4830839.81147  -3723634.80846  24223523.3204   24223530.2094   24223522.046
        44.0004         40.0004
 -10307624.83547  -7985907.60446  23296993.1974   23296996.9284   23296991.563
        45.0004         40.0004
 -10456556.86748  -8096023.02547  22911118.0964   22911123.7174   22911117.422
        48.0004         43.0004
  -6689816.73348  -5162053.86347  22873071.1774   22873077.6114   22873071.905
        48.0004         43.0004
 -16263849.89349 -12649914.21248  20873801.7444   20873804.0724   20873801.403
        55.0004         51.0004
 -20644528.40249 -16031592.91348  21185999.9984   21186002.2874   21185999.642
        54.0004         49.0004
 15  5  1  0  2 30.0000000  0  9G15G04G13G24G11G01G30G17G28
 -11451825.19148  -8882338.13047  22871267.8504   22871271.6334   22871266.984
        49.0004         44.0004
  -4420011.85447  -3429343.03046  23956682.8744   23956687.1924   23956681.720
        42.0004         38.0004
 -14323023.45448 -11108761.42847  22231811.1064   22231813.7544   22231810.293
        49.0004         44.0004
  -4933531.86747  -3803654.54446  24203980.5274   24203988.0934   24203979.413
        44.0004         40.0004
 -10243792.98647  -7936168.55446  23309141.1304   23309143.2894   23309139.855
        45.0004         40.0004
 -10452970.10648  -8093228.14547  22911799.7174   22911805.6854   22911799.011
        48.0004         43.0004
  -6592491.09048  -5086215.75847  22891591.9494   22891597.5764   22891591.994
        48.0004         43.0004
 -16299737.59149 -12677878.62248  20866972.5734   20866974.9284   20866972.129
        55.0004         51.0004
 -20608430.21449 -16003464.46248  21192868.9994   21192871.3884   21192869.202
        54.0004         49.0004
 15  5  1  0  3  0.0000000  0  9G15G04G13G24G11G01G30G17G28
 -11426565.79748  -8862655.52447  22876075.2004   22876078.6014   22876074.791
        49.0004         44.0004
  -4365542.07647  -3386899.08746  23967046.1214   23967052.8884   23967044.475
        42.0004         37.0004
 -14246805.11848 -11049370.56047  22246314.3404   22246318.1544   22246313.970
        49.0004         44.0004
  -5036092.57347  -3883571.91746  24184464.4864   24184471.7664   24184463.927
        44.0004         40.0004
 -10179444.53947  -7886026.92546  23321384.5424   23321389.4474   23321385.881
        45.0004         40.0004
 -10448770.95448  -8089956.07647  22912599.7084   22912606.7744   22912600.177
        48.0004         43.0004
  -6494914.82448  -5010182.37547  22910161.0284   22910167.1344   22910160.461
        48.0004         43.0004
 -16335139.04249 -12705464.13848  20860235.8724   20860238.1324   20860235.270
        55.0004         51.0004
 -20572112.06649 -15975164.61448  21199781.0074   21199782.7104   21199780.693
        54.0004         49.0004
 15  5  1  0  3 30.0000000  0  9G15G04G13G24G11G01G30G17G28
 -11400762.41648  -8842549.03047  22880985.8804   22880989.4644   22880985.503
        49.0004         45.0004
  -4310530.15947  -3344032.69146  23977515.4704   23977521.7594   23977515.338
        42.0004         37.0004
 -14170138.64148 -10989630.48547  22260903.9144   22260907.7564   22260903.584
        49.0004         45.0004
  -5138519.81747  -3963385.30546  24164972.9804   24164979.5754   24164972.752
        44.0004         40.0004
 -10114581.91247  -7835484.64046  23333728.0174   23333732.4594   23333724.436
        45.0004         40.0004
 -10443959.45847  -8086206.84847  22913514.5034   22913521.3084   22913513.375
        47.0004         43.0004
  -6397089.58148  -4933954.98547  22928776.5024   22928782.0644   22928775.672
        48.0004         43.0004
 -16370053.81549 -12732670.42348  20853591.9754   20853593.9704   20853591.229
        55.0004         51.0004
 -20535574.55849 -15946693.83248  21206733.3054   21206735.6784   21206733.239
        54.0004         49.0004
 15  5  1  0  4  0.0000000  0  9G15G04G13G24G11G01G30G17G28
 -11374415.93048  -8822019.35047  22885999.1894   22886002.8584   22885999.653
        49.0004         44.0004
  -4254977.70347  -3300745.10546  23988086.3314   23988093.4654   23988089.454
        42.0004         38.0004
 -14093027.05848 -10929543.58647  22275577.7554   22275582.2334   22275577.410
        49.0004         45.0004
  -5240810.85647  -4043092.55546  24145507.9534   24145514.7814   24145506.753
        44.0004         39.0004
 -10049206.84147  -7784543.07746  23346167.6614   23346172.6684   23346169.523
        45.0004         40.0004
 -10438535.37647  -8081980.28547  22914547.1214   22914553.4774   22914545.446
        47.0004         42.0004
  -6299016.92347  -4857534.80347  22947439.2774   22947446.0694   22947437.894
        47.0004         43.0004
 -16404481.64349 -12759497.27648  20847040.3154   20847042.6964   20847039.768
        55.0004         51.0004
 -20498817.90049 -15918052.28648  21213728.0884   21213730.4934   21213727.637
        54.0004         49.0004
 15  5  1  0  4 30.0000000  0  9G15G04G13G24G11G01G30G17G28
 -11347527.79448  -8801067.60147  22891116.4434   22891119.9004   22891114.867
        49.0004         44.0004
  -4198886.68847  -3257037.87446  23998762.0554   23998765.9914   23998760.057
        42.0004         38.0004
 -14015473.20848 -10869112.07647  22290335.9974   22290339.8554   22290335.303
        49.0004         44.0004
  -5342964.13747  -4122692.46646  24126068.7714   24126074.5474   24126067.227
        44.0004         39.0004
  -9983321.79647  -7733204.11346  23358707.0854   23358710.1624   23358705.178
        45.0004         40.0004
 -10432498.61047  -8077276.30347  22915695.9134   22915701.6804   22915696.180
        47.0004         43.0004
  -6200698.37247  -4780923.01047  22966148.2544   22966154.7844   22966147.582
        47.0004         43.0004
 -16438421.97949 -12785944.25948  20840581.8494   20840584.0644   20840581.072
        55.0004         51.0004
 -20461842.55149 -15889240.32748  21220764.0274   21220766.0594   21220763.960
        54.0004         49.0004
 15  5  1  0  5  0.0000000  0  9G15G04G13G24G11G01G30G17G28
 -11320099.79648  -8779695.17647  22896335.4434   22896338.8654   22896332.758
        49.0004         44.0004
  -4142259.32047  -3212912.67046  24009537.0884   24009541.4984   24009536.448
        42.0004         38.0004
 -13937480.33748 -10808338.45947  22305177.8614   22305180.9694   22305176.710
        49.0004         44.0004
  -5444977.46147  -4202183.28846  24106655.3574   24106661.9814   24106655.404
        43.0004         39.0004
  -9916929.12647  -7681469.61046  23371339.9234   23371342.7364   23371339.844
        45.0004         40.0004
 -10425849.41347  -8072095.08947  22916961.0924   22916966.8364   22916960.837
        47.0004         43.0004
  -6102135.72948  -4704121.01347  22984904.4274   22984911.3904   22984903.270
        48.0004         43.0004
 -16471874.90749 -12812011.45248  20834216.0754   20834217.9844   20834215.379
        55.0004         51.0004
 -20424649.11848 -15860258.44048  21227842.0484   21227843.8354   21227842.425
        53.0004         49.0004
 15  5  1  0  5 30.0000000  0  9G15G04G13G24G11G01G30G17G28
 -11292132.70548  -8757902.67747  22901657.7264   22901661.0354   22901656.826
        49.0004         44.0004
  -4085097.13247  -3168370.76846  24020414.6984   24020419.7754   24020413.509
        42.0004         38.0004
 -13859051.01048 -10747224.74847  22320102.6934   22320105.3504   22320101.572
        49.0004         44.0004
  -5546848.63247  -4281563.36946  24087271.1514   24087277.5354   24087268.321
        43.0004         39.0004
  -9850030.74147  -7629341.03046  23384069.8064   23384073.9864   23384071.270
        45.0004         40.0004
 -10418587.44847  -8066436.41347  22918342.4444   22918349.0834   22918341.814
        47.0004         43.0004
  -6003330.39848  -4627129.91747  23003706.8524   23003713.6954   23003706.685
        48.0004         43.0004
 -16504839.74749 -12837698.31148  20827943.2014   20827944.8704   20827942.352
        56.0004         51.0004
 -20387237.73648 -15831106.71248  21234960.9494   21234962.9894   21234960.820
        53.0004         49.0004
 15  5  1  0  6  0.0000000  0  9G15G04G13G24G11G01G30G17G28
 -11263628.20548  -8735691.41447  22907080.9234   22907084.6584   22907080.077
        49.0004         44.0004
  -4027402.29847  -3123413.81346  24031394.3914   24031398.8744   24031393.232
        43.0004         38.0004
 -13780187.94048 -10685773.04647  22335108.6084   22335113.2364   22335108.658
        49.0004         44.0004
  -5648575.53147  -4360830.99146  24067912.9194   24067919.2994   24067913.610
        43.0004         39.0004
  -9782628.96247  -7576820.20646  23396896.3694   23396900.2714   23396896.762
        45.0004         40.0004
 -10410712.85547  -8060300.36547  22919841.6034   22919847.6324   22919840.734
        47.0004         43.0004
  -5904284.03348  -4549951.01047  23022554.1724   23022561.2814   23022553.794
        48.0004         43.0004
 -16537316.45149 -12863004.81448  20821762.9604   20821764.7354   20821762.326
        56.0004         51.0004
 -20349608.87948 -15801785.52848  21242121.6424   21242123.8344   21242121.195
        53.0004         49.0004
 15  5  1  0  6 30.0000000  0  9G15G04G13G24G11G01G30G17G28
 -11234587.70048  -8713062.49047  22912607.5924   22912611.8884   22912606.815
        49.0004         44.0004
  -3969176.51347  -3078043.08546  24042473.6324   24042479.7204   24042472.587
        43.0004         38.0004
 -13700894.42248 -10623985.95847  22350197.8494   22350202.9544   22350197.202
        49.0004         44.0004
  -5750155.75447  -4439984.33146  24048581.9514   24048589.1994   24048582.431
        43.0004         38.0004
  -9714726.20947  -7523909.01946  23409817.1434   23409822.5474   23409819.312
        45.0004         40.0004
 -10402225.59747  -8053686.90347  22921456.3174   22921462.4794   22921454.504
        47.0004         43.0004
  -5804998.23848  -4472585.54347  23041447.8144   23041454.0844   23041447.433
        48.0004         44.0004
 -16569304.43949 -12887930.49148  20815675.8244   20815678.0284   20815674.832
        56.0004         51.0004
 -20311762.78448 -15772295.07248  21249323.7064   21249325.2594   21249323.087
        53.0004         49.0004
 15  5  1  0  7  0.0000000  0  9G15G04G13G24G11G01G30G17G28
 -11205012.44948  -8690016.88447  22918235.2004   22918239.8474   22918235.035
        49.0004         44.0004
  -3910421.86747  -3032260.27446  24053653.6074   24053660.4204   24053654.727
        43.0004         38.0004
 -13621173.37448 -10561865.69547  22365368.7324   22365372.9314   22365368.300
        49.0004         44.0004
  -5851587.73447  -4519022.12446  24029280.4064   24029285.9094   24029279.410
        43.0004         38.0004
  -9646324.35547  -7470608.93846  23422836.3904   23422837.5544   23422834.433
        44.0004         39.0004
 -10393125.72947  -8046596.10947  22923188.1984   22923194.0184   22923187.207
        47.0004         43.0004
  -5705474.68048  -4395034.81547  23060387.2254   23060394.1074   23060386.786
        48.0004         43.0004
 -16600803.57249 -12912475.24448  20809681.3754   20809683.5654   20809680.790
        56.0004         51.0004
 -20273699.87548 -15742635.66648  21256566.8414   21256568.4844   21256565.837
        53.0004         49.0004
 15  5  1  0  7 30.0000000  0  9G15G04G13G24G11G01G30G17G28
 -11174904.29448  -8666556.03147  22923964.0974   22923969.3774   22923964.360
        49.0004         44.0004
  -3851140.18247  -2986066.82946  24064936.1254   24064941.1124   24064934.505
        43.0004         38.0004
 -13541027.48948 -10499414.41647  22380620.4594   22380623.7154   22380619.299
        49.0004         44.0004
  -5952868.78047  -4597942.34546  24010007.3034   24010014.2174   24010006.424
        43.0004         39.0004
  -9577425.92247  -7416921.87346  23435945.5254   23435949.5184   23435944.472
        44.0004         39.0004
 -10383413.39647  -8039028.05147  22925036.2904   22925042.5464   22925036.903
        47.0004         43.0004
  -5605714.89148  -4317300.00647  23079370.6204   23079376.4724   23079370.155
        48.0004         43.0004
 -16631813.68849 -12936638.94848  20803780.3164   20803782.6934   20803779.585
        56.0004         51.0004
 -20235420.75448 -15712807.78748  21263850.4134   21263852.9904   21263850.723
        53.0004         49.0004
 15  5  1  0  8  0.0000000  0  9G15G04G13G24G11G01G30G17G28
 -11144264.48248  -8642680.89847  22929795.5974   22929800.2444   22929794.814
        49.0004         44.0004
  -3791333.75347  -2939464.46646  24076316.6924   24076321.3264   24076317.121
        43.0004         39.0004
 -13460459.79848 -10436634.45947  22395951.4534   22395955.7614   22395951.584
        49.0004         44.0004
  -6053996.86647  -4676743.34046  23990763.0454   23990768.8764   23990763.099
        43.0004         39.0004
  -9508032.98347  -7362849.50846  23449151.0024   23449153.6934   23449151.753
        44.0004         40.0004
 -10373088.60947  -8030982.74947  22926999.6134   22927006.9964   22926999.491
        47.0004         43.0004
  -5505720.45248  -4239382.36547  23098399.4184   23098406.0164   23098398.373
        48.0004         43.0004
 -16662334.39749 -12960421.29548  20797972.6854   20797974.8074   20797971.894
        56.0004         51.0004
 -20196925.48848 -15682811.48248  21271175.9894   21271178.4094   21271176.139
        53.0004         49.0004
 15  5  1  0  8 30.0000000  0  9G15G04G13G24G11G01G30G17G28
 -11113094.57248  -8618392.69247  22935726.9204   22935731.0454   22935727.618
        49.0004         44.0004
  -3731004.35447  -2892454.58846  24087797.0424   24087801.0784   24087795.069
        43.0004         39.0004
 -13379473.44348 -10373528.26247  22411362.5814   22411366.1874   22411362.134
        49.0004         44.0004
  -6154969.82447  -4755423.44546  23971548.0204   23971555.2854   23971547.765
        43.0004         39.0004
  -9438148.00547  -7308393.71246  23462450.7764   23462452.4734   23462450.071
        44.0004         40.0004
 -10362151.60447  -8022460.40847  22929082.1894   22929088.9674   22929081.953
        47.0004         43.0004
  -5405493.09948  -4161283.22447  23117472.0544   23117478.5924   23117469.704
        48.0004         43.0004
 -16692365.55049 -12983822.16948  20792257.8414   20792260.2694   20792256.865
        56.0004         51.0004
 -20158214.59548 -15652647.15748  21278542.5184   21278544.8864   21278542.132
        53.0004         49.0004
 15  5  1  0  9  0.0000000  0  9G15G04G13G24G11G01G30G17G28
 -11081396.27348  -8593692.76447  22941759.1494   22941762.3074   22941758.160
        49.0004         44.0004
  -3670154.22947  -2845038.95246  24099376.5534   24099381.3634   24099376.329
        44.0004         39.0004
 -13298071.66648 -10310098.35747  22426852.5464   22426856.4824   22426852.591
        48.0004         43.0004
  -6255785.06247  -4833980.66046  23952363.3264   23952370.4444   23952361.799
        44.0004         39.0004
  -9367773.52847  -7253556.50146  23475841.2724   23475845.6654   23475840.944
        44.0004         40.0004
 -10350602.56247  -8013461.15247  22931280.0204   22931286.5604   22931280.483
        47.0004         43.0004
  -5305034.50247  -4083003.90047  23136588.0664   23136595.3454   23136586.856
        47.0004         43.0004
 -16721906.74149 -13006841.25448  20786636.3404   20786638.4634   20786635.518
        56.0004         51.0004
 -20119288.49348 -15622315.13948  21285950.1474   21285952.1594   21285950.067
        53.0004         49.0004
 15  5  1  0  9 30.0000000  0  9G15G04G13G24G11G01G30G17G28
 -11049170.96448  -8568582.16547  22947892.2214   22947894.6774   22947890.033
        49.0004         44.0004
  -3608785.14247  -2797218.94546  24111054.1124   24111059.7914   24111052.642
        44.0004         39.0004
 -13216256.98148 -10246346.71947  22442421.7154   22442425.8094   22442421.345
        48.0004         43.0004
  -6356440.81547  -4912413.58446  23933209.6314   23933215.7344   23933209.575
        44.0004         40.0004
  -9296911.60047  -7198339.45946  23489325.1704   23489329.7314   23489325.862
        44.0004         39.0004
 -10338441.52547  -8003985.01147  22933594.6524   22933600.7064   22933593.981
        47.0004         43.0004
  -5204346.09347  -4004545.49647  23155749.6674   23155755.2874   23155747.963
        47.0004         43.0004
 -16750958.15949 -13029478.70048  20781107.9914   20781110.1094   20781107.293
        56.0004         51.0004
 -20080147.40448 -15591815.59548  21293398.1394   21293400.4254   21293398.031
        53.0004         49.0004
 15  5  1  0 10  0.0000000  0  9G15G04G13G24G11G01G30G17G28
 -11016420.32648  -8543062.22547  22954123.3374   22954127.5384   22954123.667
        49.0004         44.0004
  -3546899.51747  -2748996.44046  24122831.7034   24122836.8644   24122829.652
        43.0004         39.0004
 -13134032.64648 -10182275.86647  22458069.0644   22458073.8414   22458068.635
        48.0004         43.0004
  -6456934.66747  -4990720.34246  23914086.7784   23914092.6054   23914086.229
        44.0004         40.0004
  -9225564.53347  -7142744.38446  23502903.9174   23502906.1394   23502901.054
        44.0004         39.0004
 -10325668.90947  -7994032.31247  22936023.6814   22936031.4624   22936022.154
        47.0004         43.0004
  -5103429.69147  -3925909.42347  23174952.8324   23174959.1014   23174951.663
        47.0004         42.0004
 -16779519.61949 -13051734.36048  20775672.8614   20775675.4064   20775672.167
        56.0004         51.0004
 -20040791.83948 -15561148.92748  21300887.4424   21300889.4144   21300887.253
        53.0004         49.0004
 15  5  1  0 10 30.0000000  0  9G15G04G13G24G11G01G30G17G28
 -10983145.74148  -8517134.01847  22960456.4994   22960458.3834   22960454.853
        49.0004         44.0004
  -3484499.19147  -2700372.84846  24134705.4054   24134710.5574   24134704.431
        43.0004         38.0004
 -13051401.49748 -10117888.01947  22473792.9074   22473797.1474   22473792.095
        48.0004         44.0004
  -6557264.86547  -5068899.59546  23894993.3844   23895000.5254   23894992.250
        45.0004         40.0004
  -9153734.53747  -7086773.00746  23516572.4844   23516574.7934   23516574.468
        44.0004         39.0004
 -10312284.72447  -7983603.08547  22938571.9124   22938578.5754   22938571.001
        47.0004         42.0004
  -5002286.82947  -3847096.89147  23194199.0454   23194206.3604   23194198.759
        47.0004         42.0004
 -16807590.42849 -13073607.69048  20770331.3484   20770333.4734   20770330.661
        56.0004         51.0004
 -20001222.07348 -15530315.34848  21308417.0014   21308419.4444   21308417.176
        53.0004         49.0004
 15  5  1  0 11  0.0000000  0  9G15G04G13G24G11G01G30G17G28
 -10949349.06748  -8490798.98747  22966887.7324   22966890.1874   22966886.286
        49.0004         44.0004
  -3421586.16947  -2651349.75746  24146677.0574   24146682.4164   24146677.383
        43.0004         39.0004
 -12968366.47448 -10053185.47347  22489594.2614   22489598.6324   22489593.988
        48.0004         44.0004
  -6657428.49547  -5146949.06646  23875933.3444   23875939.7084   23875931.253
        45.0004         40.0004
  -9081424.15847  -7030427.32446  23530332.4034   23530335.1694   23530329.971
        44.0004         39.0004
 -10298289.44247  -7972697.67047  22941234.3484   22941241.5384   22941233.877
        47.0004         43.0004
  -4900919.32147  -3768109.32747  23213488.3424   23213495.8364   23213488.014
        47.0004         42.0004
 -16835170.87949 -13095098.92648  20765082.8724   20765084.9784   20765082.041
        56.0004         51.0004
 -19961438.56148 -15499315.22148  21315987.8344   21315990.0454   21315988.209
        53.0004         49.0004
 15  5  1  0 11 30.0000000  0  9G15G04G13G24G11G01G30G17G28
 -10915031.77848  -8464058.27447  22973417.3384   22973421.9994   22973416.127
        49.0004         44.0004
  -3358162.76147  -2601928.96946  24158746.3704   24158750.8284   24158745.695
        43.0004         38.0004
 -12884931.23948  -9988171.06347  22505472.6304   22505474.6374   22505470.965
        48.0004         44.0004
  -6757423.92247  -5224867.45646  23856904.3004   23856910.7274   23856904.761
        45.0004         40.0004
  -9008635.89947  -6973709.24346  23544183.3024   23544187.2764   23544182.755
        44.0004         39.0004
 -10283683.26647  -7961316.23047  22944013.9964   22944020.0534   22944014.069
        47.0004         42.0004
  -4799328.73047  -3688947.92447  23232820.6114   23232827.9404   23232820.290
        47.0004         42.0004
 -16862260.85149 -13116207.97248  20759927.8184   20759930.2014   20759926.989
        56.0004         51.0004
 -19921441.53548 -15468148.71248  21323598.9114   21323601.2724   21323599.251
        53.0004         49.0004
 15  5  1  0 12  0.0000000  0  9G15G04G13G24G11G01G30G17G28
 -10880195.52348  -8436913.17947  22980045.9984   22980050.3874   22980045.148
        49.0004         44.0004
  -3294231.18047  -2552112.21946  24170912.6484   24170917.4024   24170912.275
        43.0004         39.0004
 -12801098.33548  -9922846.78447  22521424.8534   22521427.3324   22521423.802
        48.0004         44.0004
  -6857248.83747  -5302652.97946  23837908.4144   23837914.3604   23837907.073
        45.0004         40.0004
  -8935371.81747  -6916620.37946  23558125.6504   23558128.6554   23558124.587
        44.0004         39.0004
 -10268466.46947  -7949458.99647  22946910.4624   22946916.4064   22946909.761
        47.0004         42.0004
  -4697516.61847  -3609613.88647  23252194.6774   23252202.2424   23252195.156
        47.0004         42.0004
 -16888860.08549 -13136934.63048  20754866.2834   20754868.2104   20754865.481
        56.0004         51.0004
 -19881231.00448 -15436815.83848  21331250.5814   21331252.9894   21331250.902
        53.0004         48.0004
 15  5  1  0 12 30.0000000  0 10G15G04G13G24G11G01G06G30G17G28
 -10844842.15048  -8409365.13447  22986774.8504   22986777.5484   22986772.445
        49.0004         44.0004
  -3229793.21447  -2501900.89146  24183174.7234   24183179.5094   24183174.912
        43.0004         39.0004
 -12716870.83848  -9857215.01647  22537452.8884   22537454.4774   22537451.511
        48.0004         43.0004
  -6956900.61247  -5380303.61346  23818945.6304   23818951.6764   23818943.158
        45.0004         40.0004
  -8861634.56847  -6859162.81346  23572155.5794   23572160.4504   23572155.655
        43.0004         39.0004
 -10252639.45547  -7937126.25647  22949921.6584   22949928.3044   22949921.067
        47.0004         43.0004
   -176875.02348    -94893.75346  25197402.3854   25197415.5464   25197401.799
        53.0004         36.0004
  -4595484.74747  -3530108.61547  23271610.8964   23271617.9714   23271610.979
        47.0004         42.0004
 -16914968.24149 -13157278.62948  20749897.9384   20749899.6244   20749897.138
        56.0004         51.0004
 -19840808.10448 -15405317.48548  21338943.4684   21338945.6144   21338942.927
        53.0004         48.0004
 15  5  1  0 13  0.0000000  0 10G15G04G13G24G11G01G06G30G17G28
 -10808973.02948  -8381415.18647  22993599.5994   22993602.2074   22993598.384
        49.0004         44.0004
  -3164851.32147  -2451296.86646  24195532.7704   24195537.4834   24195532.438
        43.0004         38.0004
 -12632251.66848  -9791278.04847  22553555.4224   22553558.8534   22553554.438
        48.0004         43.0004
  -7056377.16747  -5457817.70646  23800014.5484   23800022.1704   23800013.362
        45.0004         40.0004
  -8787426.45147  -6801338.35346  23586277.6654   23586280.3404   23586277.849
        43.0004         39.0004
 -10236202.57047  -7924318.28647  22953049.6074   22953054.2454   22953048.601
        47.0004         43.0004
   -286496.45248   -180312.68346  25176543.9354   25176554.7764   25176540.882
        48.0004         36.0004
  -4493234.78747  -3450433.41447  23291069.2814   23291075.8294   23291068.090
        47.0004         42.0004
 -16940585.85249 -13177240.38248  20745023.2034   20745024.8354   20745022.304
        56.0004         51.0004
 -19800172.65948 -15373653.50648  21346675.6444   21346677.6684   21346675.796
        53.0004         49.0004
 15  5  1  0 13 30.0000000  0 10G15G04G13G24G11G01G06G30G17G28
 -10772590.16448  -8353064.93947  23000524.2504   23000526.5354   23000521.818
        49.0004         44.0004
  -3099407.82447  -2400301.97646  24207986.6014   24207991.1954   24207985.329
        43.0004         38.0004
 -12547244.20048  -9725038.52447  22569731.7674   22569734.8854   22569730.792
        48.0004         43.0004
  -7155676.21147  -5535193.48046  23781119.0974   23781125.0884   23781118.058
        45.0004         40.0004
  -8712749.71647  -6743148.73346  23600487.5004   23600492.0924   23600487.334
        43.0004         38.0004
 -10219156.31347  -7911035.49447  22956293.8594   22956299.7404   22956292.758
        47.0004         43.0004
   -396181.63547   -265781.22446  25155668.2224   25155682.8174   25155669.468
        43.0004         36.0004
  -4390768.55247  -3370589.70147  23310568.8014   23310575.1314   23310567.016
        47.0004         42.0004
 -16965712.71949 -13196819.73848  20740241.3244   20740243.5944   20740240.546
        56.0004         51.0004
 -19759325.16048 -15341824.28648  21354448.8124   21354451.2144   21354448.737
        53.0004         49.0004
 15  5  1  0 14  0.0000000  0 10G15G04G13G24G11G01G06G30G17G28
 -10735695.18448  -8324315.62847  23007544.5284   23007547.9074   23007543.313
        49.0004         44.0004
  -3033464.84447  -2348917.92446  24220534.3654   24220540.3824   24220533.103
        42.0004         38.0004
 -12461851.28648  -9658498.65147  22585981.4874   22585985.2434   22585980.487
        48.0004         44.0004
  -7254795.60747  -5612429.25646  23762256.3924   23762263.5214   23762253.658
        44.0004         40.0004
  -8637607.25647  -6684596.23446  23614787.2934   23614790.8434   23614786.628
        43.0004         39.0004
 -10201500.95447  -7897278.06947  22959653.1534   22959659.8614   22959651.758
        47.0004         43.0004
   -505927.85546   -351297.33345  25134784.5034   25134795.7984   25134784.461
        41.0004         35.0004
  -4288087.52947  -3290578.62347  23330106.8324   23330114.3334   23330107.946
        47.0004         42.0004
 -16990348.52649 -13216016.44948  20735553.6804   20735555.5144   20735552.871
        56.0004         51.0004
 -19718265.71648 -15309829.92148  21362262.1734   21362264.5334   21362261.970
        53.0004         49.0004
 15  5  1  0 14 30.0000000  0 10G15G04G13G24G11G01G06G30G17G28
 -10698289.63448  -8295168.46047  23014662.4174   23014665.6404   23014662.682
        49.0004         44.0004
  -2967024.28447  -2297146.13946  24233177.8434   24233182.7884   24233177.141
        42.0004         37.0004
 -12376075.99948  -9591660.82147  22602303.3654   22602307.3424   22602303.784
        48.0004         43.0004
  -7353733.29147  -5689523.46146  23743428.4364   23743436.0924   23743426.981
        44.0004         40.0004
  -8562001.17747  -6625682.44346  23629174.2384   23629177.8024   23629174.268
        43.0004         39.0004
 -10183236.97147  -7883046.39047  22963128.8024   22963134.0204   22963129.249
        47.0004         43.0004
   -615732.46046   -436858.91545  25113889.2204   25113902.1934   25113889.285
        40.0004         35.0004
  -4185193.37147  -3210401.44847  23349687.0924   23349694.6024   23349687.237
        46.0004         42.0004
 -17014493.17549 -13234830.43948  20730958.7674   20730961.0104   20730958.013
        56.0004         51.0004
 -19676994.96248 -15277670.90048  21370115.4724   21370117.8604   21370115.167
        53.0004         48.0004
 15  5  1  0 15  0.0000000  0 10G15G04G13G24G11G01G06G30G17G28
 -10660375.63348  -8265625.12547  23021877.0804   23021880.3694   23021876.621
        49.0004         44.0004
  -2900088.49847  -2244988.40846  24245915.7444   24245919.9034   24245915.350
        42.0004         37.0004
 -12289921.63048  -9524527.59947  22618697.7584   22618701.7644   22618697.394
        48.0004         43.0004
  -7452486.75847  -5766474.13646  23724637.8834   23724644.2174   23724635.907
        44.0004         40.0004
  -8485933.95447  -6566409.32446  23643649.3094   23643654.5524   23643648.579
        43.0004         38.0004
 -10164364.96347  -7868340.91847  22966718.6444   22966725.4934   22966717.500
        47.0004         42.0004
   -725592.98846   -522464.07245  25092982.0744   25092994.9034   25092982.277
        40.0004         35.0004
  -4082087.91547  -3130059.64347  23369308.1084   23369313.9304   23369307.629
        46.0004         42.0004
 -17038147.10549 -13253262.05348  20726457.7684   20726459.6604   20726456.860
        56.0004         52.0004
 -19635513.10748 -15245347.38748  21378009.3634   21378011.2774   21378009.101
        53.0004         48.0004
 15  5  1  0 15 30.0000000  0 10G15G04G13G24G11G01G06G30G17G28
 -10621954.71548  -8235686.78747  23029189.4044   23029191.9614   23029186.335
        48.0004         44.0004
  -2832659.76347  -2192446.59046  24258748.2474   24258752.0274   24258748.229
        42.0004         37.0004
 -12203391.46148  -9457101.55047  22635165.8934   22635168.1164   22635163.981
        48.0004         43.0004
  -7551053.91647  -5843279.63746  23705880.5654   23705887.3004   23705880.219
        44.0004         40.0004
  -8409408.20247  -6506778.90446  23658211.2154   23658215.3174   23658212.394
        43.0004         39.0004
 -10144885.29447  -7853161.95847  22970426.9194   22970433.1384   22970425.589
        47.0004         43.0004
   -835506.73246   -608110.71246  25072067.3874   25072076.7564   25072065.889
        40.0004         36.0004
  -3978772.77247  -3049554.44947  23388969.3234   23388974.9494   23388968.634
        46.0004         42.0004
 -17061310.07149 -13271311.09948  20722049.9944   20722051.8014   20722049.356
        56.0004         52.0004
 -19593820.59848 -15212859.72548  21385943.2944   21385945.3424   21385943.909
        53.0004         48.0004
 15  5  1  0 16  0.0000000  0 10G15G04G13G24G11G01G06G30G17G28
 -10583028.76148  -8205354.89247  23036595.2844   23036599.3344   23036593.827
        48.0004         44.0004
  -2764740.35647  -2139522.47246  24271671.8104   24271676.1964   24271670.969
        42.0004         37.0004
 -12116488.52648  -9389385.03847  22651702.3654   22651706.0354   22651700.630
        48.0004         43.0004
  -7649431.88047  -5919937.73446  23687160.2074   23687166.4284   23687159.227
        44.0004         40.0004
  -8332426.65847  -6446793.35446  23672861.5434   23672865.9074   23672860.829
        43.0004         39.0004
 -10124798.60147  -7837509.97647  22974249.0914   22974255.6324   22974248.053
        47.0004         42.0004
   -945471.05646   -693796.75446  25051143.7764   25051153.4334   25051142.020
        40.0004         36.0004
  -3875249.70047  -2968887.23547  23408668.0984   23408675.3444   23408666.699
        46.0004         42.0004
 -17083981.75149 -13288977.32748  20717735.6074   20717737.4624   20717735.129
        56.0004         52.0004
 -19551917.46248 -15180207.94148  21393917.0644   21393919.0654   21393917.295
        53.0004         48.0004
 15  5  1  0 16 30.0000000  0 10G15G04G13G24G11G01G06G30G17G28
 -10543599.51548  -8174630.82647  23044099.0894   23044102.4364   23044098.586
        48.0004         44.0004
  -2696332.65046  -2086217.82646  24284689.7084   24284694.5684   24284687.731
        41.0004         36.0004
 -12029215.39548  -9321380.06847  22668309.3844   22668312.0614   22668308.364
        48.0004         43.0004
  -7747619.11047  -5996447.21046  23668475.8904   23668482.4404   23668474.432
        44.0004         40.0004
  -8254991.00147  -6386453.93546  23687598.0484   23687601.2034   23687598.098
        43.0004         39.0004
 -10104105.24447  -7821385.27247  22978186.3904   22978192.0964   22978186.818
        47.0004         42.0004
  -1055483.25146   -779520.11346  25030203.7184   25030215.9304   25030206.191
        40.0004         36.0004
  -3771520.30447  -2888059.23647  23428407.0594   23428414.3574   23428406.662
        46.0004         42.0004
 -17106162.40549 -13306260.93548  20713514.7634   20713516.7164   20713513.963
        56.0004         52.0004
 -19509804.20848 -15147392.42448  21401931.1954   21401933.5374   21401931.486
        53.0004         48.0004
 15  5  1  0 17  0.0000000  0 10G15G04G13G24G11G01G06G30G17G28
 -10503669.23648  -8143516.33647  23051697.1094   23051700.5884   23051697.079
        48.0004         44.0004
  -2627438.85646  -2032534.39946  24297798.7124   24297802.7014   24297798.491
        41.0004         36.0004
 -11941575.70748  -9253089.46147  22684986.9364   22684990.3054   22684986.165
        48.0004         43.0004
  -7845612.63947  -6072805.76846  23649828.9154   23649834.8304   23649827.719
        45.0004         40.0004
  -8177104.05147  -6325762.87146  23702418.5764   23702423.0914   23702417.805
        43.0004         39.0004
 -10082806.00447  -7804788.45647  22982239.9114   22982246.6354   22982237.845
        47.0004         42.0004
  -1165540.75246   -865278.78246  25009261.7154   25009271.6804   25009262.246
        40.0004         36.0004
  -3667586.35847  -2807071.85346  23448185.3204   23448192.9064   23448184.223
        46.0004         41.0004
 -17127852.43949 -13323162.23848  20709387.0884   20709389.2154   20709386.372
        56.0004         52.0004
 -19467481.16948 -15114413.44548  21409984.5824   21409987.3744   21409983.985
        53.0004         48.0004
 15  5  1  0 17 30.0000000  0 10G15G04G13G24G11G01G06G30G17G28
 -10463239.36948  -8112012.56347  23059390.4614   23059395.2624   23059390.120
        48.0004         44.0004
  -2558061.27346  -1978473.98646  24310999.0174   24311004.6854   24311000.223
        40.0004         36.0004
 -11853572.34048  -9184515.46547  22701732.9334   22701737.5924   22701732.660
        48.0004         43.0004
  -7943410.49947  -6149011.85946  23631218.5424   23631224.1014   23631217.045
        45.0004         40.0004
  -8098768.32147  -6264722.09046  23717325.9684   23717329.4914   23717327.582
        43.0004         39.0004
 -10060901.46747  -7787720.01147  22986408.2024   22986413.7084   22986408.160
        47.0004         43.0004
  -1275640.94046   -951070.71846  24988308.2344   24988320.1464   24988309.346
        41.0004         36.0004
  -3563449.65947  -2725926.50247  23468001.6854   23468008.5674   23468000.858
        46.0004         42.0004
 -17149051.81149 -13339681.21048  20705353.0834   20705354.9284   20705352.551
        56.0004         52.0004
 -19424949.07248 -15081271.56448  21418078.6454   21418080.8904   21418078.059
        53.0004         48.0004
 15  5  1  0 18  0.0000000  0 10G15G04G13G24G11G01G06G30G17G28
 -10422311.76648  -8080120.95947  23067179.5504   23067183.9234   23067178.971
        49.0004         44.0004
  -2488202.20246  -1924038.38445  24324294.5734   24324302.0754   24324294.471
        40.0004         35.0004
 -11765208.51247  -9115660.61547  22718548.1604   22718551.1074   22718547.370
        47.0004         43.0004
  -8041010.57547  -6225063.83546  23612644.8924   23612650.6934   23612643.334
        45.0004         41.0004
  -8019986.63747  -6203333.82446  23732317.6704   23732322.8384   23732316.976
        43.0004         39.0004
 -10038392.17147  -7770180.29847  22990692.3294   22990697.4704   22990690.245
        47.0004         42.0004
  -1385780.93846  -1036893.64946  24967348.0974   24967361.5534   24967348.377
        41.0004         36.0004
  -3459111.74447  -2644624.33746  23487856.3794   23487863.6454   23487856.007
        46.0004         41.0004
 -17169760.34249 -13355817.71048  20701412.4044   20701414.3244   20701411.597
        56.0004         52.0004
 -19382207.32648 -15047966.32148  21426211.8654   21426214.0694   21426212.299
        53.0004         48.0004
 15  5  1  0 18 30.0000000  0 10G15G04G13G24G11G01G06G30G17G28
 -10380888.57148  -8047843.17347  23075061.8764   23075066.1054   23075060.595
        49.0004         44.0004
  -2417863.78246  -1869229.32645  24337681.3124   24337684.6984   24337678.284
        40.0004         35.0004
 -11676487.40447  -9046527.34947  22735431.0974   22735435.2404   22735430.415
        47.0004         43.0004
  -8138410.57747  -6300959.91546  23594111.1794   23594116.7014   23594109.998
        45.0004         41.0004
  -7940761.33347  -6141599.85746  23747393.6024   23747398.2494   23747393.370
        43.0004         39.0004
 -10015278.74747  -7752169.82347  22995090.5254   22995096.1524   22995089.203
        47.0004         42.0004
  -1495958.28046  -1122745.71146  24946382.4254   24946397.2904   24946381.772
        41.0004         37.0004
  -3354574.39947  -2563166.77046  23507749.4714   23507756.2834   23507748.743
        46.0004         41.0004
 -17189978.12649 -13371571.81048  20697565.1794   20697566.8904   20697564.369
        56.0004         52.0004
 -19339256.82348 -15014498.40548  21434385.1354   21434387.4334   21434384.770
        53.0004         48.0004
 15  5  1  0 19  0.0000000  0 10G15G04G13G24G11G01G06G30G17G28
 -10338971.49248  -8015180.52547  23083038.8294   23083042.8224   23083037.970
        49.0004         44.0004
  -2347048.70346  -1814048.77645  24351156.8004   24351160.6294   24351154.666
        40.0004         35.0004
 -11587412.31347  -8977118.26547  22752383.0584   22752385.2314   22752381.471
        47.0004         43.0004
  -8235608.00047  -6376698.12846  23575614.7174   23575620.5044   23575613.642
        45.0004         41.0004
  -7861094.59647  -6079521.94146  23762552.6044   23762557.6844   23762553.360
        43.0004         38.0004
  -9991561.94747  -7733689.21047  22999603.7084   22999610.2424   22999602.768
        47.0004         43.0004
  -1606170.15146  -1208624.68946  24925408.6304   24925421.2244   24925406.525
        41.0004         37.0004
  -3249839.37547  -2481555.17746  23527680.3684   23527687.3924   23527680.402
        46.0004         41.0004
 -17209705.20349 -13386943.53848  20693811.1214   20693812.9934   20693810.310
        56.0004         52.0004
 -19296097.90448 -14980868.09548  21442598.2694   21442600.2064   21442597.845
        53.0004         48.0004
 15  5  1  0 19 30.0000000  0 10G15G04G13G24G11G01G06G30G17G28
 -10296562.60648  -7982134.67147  23091109.0014   23091111.7534   23091108.371
        48.0004         44.0004
  -2275759.27146  -1758498.58446  24364722.6814   24364728.4054   24364719.272
        40.0004         36.0004
 -11497986.33547  -8907435.74647  22769399.0794   22769402.5594   22769397.904
        47.0004         43.0004
  -8332600.73347  -6452276.84546  23557157.6004   23557163.7864   23557157.686
        45.0004         40.0004
  -7780989.57247  -6017102.51246  23777796.7164   23777800.2934   23777794.480
        43.0004         38.0004
  -9967242.50547  -7714738.99647  23004230.3854   23004237.2024   23004231.629
        47.0004         42.0004
  -1716413.97056  -1294528.57256  24904432.2285   24904443.7115   24904428.688
        41.0004         37.0004
  -3144908.38947  -2399790.87346  23547648.2534   23547654.9244   23547646.954
        46.0004         41.0004
 -17228941.93949 -13401933.18848  20690150.7024   20690152.4494   20690149.917
        56.0004         52.0004
 -19252730.56648 -14947075.37348  21450850.7054   21450852.8384   21450850.323
        53.0004         48.0004
 15  5  1  0 20  0.0000000  0 10G15G04G13G24G11G01G06G30G17G28
 -10253663.61648  -7948706.91147  23099273.2884   23099276.4854   23099270.598
        48.0004         44.0004
  -2203997.57746  -1702580.43746  24378379.3104   24378384.4014   24378377.581
        40.0004         36.0004
 -11408212.56247  -8837482.22347  22786481.8024   22786486.2114   22786481.218
        47.0004         42.0004
  -8429385.91247  -6527693.83546  23538740.4774   23538746.5094   23538739.567
        45.0004         41.0004
  -7700448.37747  -5954343.21646  23793124.4604   23793127.7484   23793123.324
        43.0004         39.0004
  -9942321.07447  -7695319.70247  23008973.6994   23008980.2984   23008972.306
        47.0004         42.0004
  -1826687.00447  -1380455.21546  24883448.3574   24883461.5224   24883446.532
        42.0004         37.0004
  -3039783.22047  -2317875.27946  23567653.5394   23567659.9364   23567653.305
        46.0004         41.0004
 -17247688.69649 -13416541.03448  20686583.2664   20686584.9014   20686582.295
        56.0004         52.0004
 -19209155.12848 -14913120.49348  21459142.3844   21459144.8734   21459143.081
        53.0004         48.0004
 15  5  1  0 20 30.0000000  0 10G15G04G13G24G11G01G06G30G17G28
 -10210276.92748  -7914899.11647  23107528.2534   23107532.1484   23107527.870
        48.0004         44.0004
  -2131766.18546  -1646296.30846  24392122.9254   24392127.9434   24392120.005
        41.0004         36.0004
 -11318093.95947  -8767259.99747  22803632.4424   22803635.5734   22803630.888
        47.0004         42.0004
  -8525961.69247  -6602947.65546  23520361.9334   23520367.9054   23520359.884
        45.0004         41.0004
  -7619473.99647  -5891246.36046  23808533.0074   23808536.4954   23808532.186
        44.0004         39.0004
  -9916798.43347  -7675431.92947  23013830.8454   23013836.1514   23013829.893
        47.0004         42.0004
  -1936986.58047  -1466402.59546  24862457.5904   24862468.9854   24862455.214
        42.0004         37.0004
  -2934465.53247  -2235809.67546  23587694.0514   23587701.8644   23587694.606
        46.0004         41.0004
 -17265945.18649 -13430766.85248  20683109.0054   20683110.9754   20683108.143
        56.0004         52.0004
 -19165372.48048 -14879004.14948  21467473.9124   21467476.2384   21467473.913
        53.0004         48.0004
 15  5  1  0 21  0.0000000  0 10G15G04G13G24G11G01G06G30G17G28
 -10166404.24848  -7880712.63547  23115876.8964   23115879.9344   23115876.864
        48.0004         43.0004
  -2059067.59046  -1589648.08246  24405956.6764   24405962.5624   24405955.135
        41.0004         36.0004
 -11227633.87947  -8696771.70447  22820845.6184   22820852.0074   22820844.636
        46.0004         42.0004
  -8622325.74547  -6678036.48446  23502024.6634   23502030.5944   23502023.364
        46.0004         41.0004
  -7538068.54647  -5827813.60246  23824024.6864   23824026.8554   23824023.215
        44.0004         39.0004
  -9890675.29147  -7655076.23547  23018801.5124   23018807.5324   23018799.456
        47.0004         42.0004
  -2047309.86747  -1552368.46146  24841464.4844   24841476.8724   24841463.984
        42.0004         38.0004
  -2828957.03547  -2153595.40247  23607772.3524   23607779.0184   23607771.598
        46.0004         42.0004
 -17283711.64049 -13444610.82348  20679727.8564   20679730.2194   20679727.009
        56.0004         52.0004
 -19121382.38948 -14844726.16848  21475845.5984   21475847.2404   21475845.889
        53.0004         48.0004
 15  5  1  0 21 30.0000000  0 10G15G04G13G24G11G01G06G30G17G28
 -10122047.67348  -7846149.08547  23124318.2674   23124320.8574   23124317.841
        48.0004         44.0004
  -1985904.00246  -1532637.51546  24419880.0904   24419884.6054   24419876.649
        41.0004         37.0004
 -11136835.67447  -8626019.93046  22838124.1644   22838127.4234   22838123.226
        46.0004         41.0004
  -8718475.60347  -6752958.38446  23483727.5834   23483733.9804   23483727.056
        46.0004         41.0004
  -7456234.85247  -5764047.14546  23839596.5034   23839599.6124   23839597.588
        44.0004         39.0004
  -9863952.59847  -7634253.35547  23023885.8684   23023892.8474   23023885.520
        47.0004         42.0004
  -2157654.29647  -1638350.82646  24820465.5944   24820476.7834   24820464.620
        42.0004         38.0004
  -2723259.58447  -2071233.86847  23627886.1264   23627893.7564   23627885.494
        46.0004         42.0004
 -17300988.51049 -13458073.29948  20676440.5054   20676442.4104   20676439.887
        56.0004         52.0004
 -19077185.32548 -14810286.90448  21484255.9124   21484257.8064   21484255.933
        53.0004         48.0004
 15  5  1  0 22  0.0000000  0 10G15G04G13G24G11G01G06G30G17G28
 -10077209.10748  -7811209.96047  23132850.0134   23132853.8554   23132850.744
        48.0004         44.0004
  -1912278.06946  -1475266.72446  24433888.5774   24433895.9154   24433887.224
        41.0004         37.0004
 -11045702.41147  -8555007.06446  22855465.9094   22855469.5824   22855465.129
        46.0004         41.0004
  -8814409.23847  -6827711.79746  23465471.7824   23465478.4794   23465470.598
        46.0004         41.0004
  -7373975.39947  -5699948.91846  23855250.0404   23855252.5564   23855250.025
        44.0004         39.0004
  -9836631.10947  -7612963.88547  23029085.5394   23029091.8144   23029084.864
        47.0004         42.0004
  -2268017.09047  -1724347.50046  24799464.2614   24799474.0764   24799462.862
        43.0004         38.0004
  -2617374.91447  -1988726.45346  23648034.8504   23648043.1154   23648035.102
        46.0004         41.0004
 -17317775.87549 -13471154.34548  20673246.1194   20673247.7624   20673245.413
        56.0004         52.0004
 -19032781.76648 -14775686.73448  21492705.2184   21492707.7764   21492705.116
        53.0004         48.0004
 15  5  1  0 22 30.0000000  0 10G15G04G13G24G11G01G06G30G17G28
 -10031890.25048  -7775896.60147  23141473.8334   23141477.7844   23141473.743
        48.0004         44.0004
  -1838192.06447  -1417537.45946  24447988.6094   24447992.6754   24447989.715
        42.0004         37.0004
 -10954237.19547  -8483735.51747  22872871.0194   22872874.0854   22872870.361
        46.0004         42.0004
  -8910123.92447  -6902294.58646  23447258.7344   23447264.1004   23447256.690
        46.0004         41.0004
  -7291292.74147  -5635520.92546  23870983.2124   23870986.9034   23870982.976
        43.0004         38.0004
  -9808711.62947  -7591208.45047  23034398.3184   23034404.6254   23034397.437
        47.0004         43.0004
  -2378395.43447  -1810356.28246  24778459.7904   24778470.9524   24778458.369
        43.0004         38.0004
  -2511304.72547  -1906074.51546  23668218.9464   23668227.8314   23668219.168
        46.0004         41.0004
 -17334073.88049 -13483854.07048  20670144.4844   20670146.3934   20670143.671
        56.0004         52.0004
 -18988171.78448 -14740925.72148  21501194.3354   21501196.8354   21501194.116
        53.0004         48.0004
 15  5  1  0 23  0.0000000  0 10G15G04G13G24G11G01G06G30G17G28
  -9986093.65348  -7740210.95647  23150189.2304   23150194.1344   23150188.732
        48.0004         44.0004
  -1763648.30047  -1359451.47246  24462172.8674   24462180.2744   24462172.094
        42.0004         38.0004
 -10862443.27847  -8412207.84747  22890339.2644   22890343.2694   22890337.513
        46.0004         42.0004
  -9005617.45347  -6976705.04346  23429086.4954   23429091.9194   23429084.715
        46.0004         41.0004
  -7208189.62847  -5570765.29546  23886796.8824   23886801.1544   23886796.822
        43.0004         38.0004
  -9780195.08747  -7568987.77347  23039825.5574   23039831.1074   23039824.440
        47.0004         42.0004
  -2488786.68847  -1896375.13646  24757454.5144   24757464.9334   24757453.130
        42.0004         38.0004
  -2405050.78847  -1823279.39846  23688438.6134   23688447.3304   23688437.228
        46.0004         41.0004
 -17349882.97849 -13496172.82948  20667136.1424   20667138.0004   20667135.525
        56.0004         52.0004
 -18943355.58648 -14706004.01648  21509722.7404   21509725.2854   21509722.621
        53.0004         48.0004
 15  5  1  0 23 30.0000000  0 10G15G04G13G24G11G01G06G30G17G28
  -9939821.45148  -7704154.71947  23158994.7404   23158997.5914   23158993.517
        48.0004         44.0004
  -1688649.68047  -1301011.07046  24476445.4914   24476451.4784   24476444.607
        43.0004         38.0004
 -10770323.82647  -8340426.53147  22907869.0704   22907873.2944   22907868.694
        46.0004         42.0004
  -9100887.68647  -7050941.50046  23410957.4784   23410962.1874   23410955.613
        46.0004         41.0004
  -7124668.80847  -5505684.20546  23902692.1824   23902694.7164   23902690.919
        43.0004         38.0004
  -9751082.40747  -7546302.57647  23045364.3004   23045370.6434   23045363.645
        47.0004         42.0004
  -2599188.12547  -1982401.93046  24736443.3344   24736454.4024   24736443.743
        42.0004         38.0004
  -2298614.86247  -1740342.46546  23708693.4534   23708701.2804   23708692.293
        46.0004         41.0004
 -17365203.21449 -13508110.65948  20664220.7824   20664222.7224   20664220.112
        56.0004         52.0004
 -18898333.57548 -14670921.94448  21518290.3634   21518292.3854   21518290.182
        53.0004         48.0004
 15  5  1  0 24  0.0000000  0 10G15G04G13G24G11G01G06G30G17G28
  -9893075.41048  -7667729.25847  23167889.7694   23167894.6164   23167888.745
        48.0004         44.0004
  -1613198.16847  -1242217.75646  24490804.4334   24490808.6574   24490803.042
        43.0004         38.0004
 -10677882.13747  -8268394.12147  22925459.6704   22925464.1284   22925459.002
        46.0004         42.0004
  -9195931.54147  -7125001.55746  23392870.0524   23392876.1954   23392869.512
        46.0004         41.0004
  -7040732.39847  -5440279.30446  23918662.7054   23918669.6124   23918664.351
        42.0004         38.0004
  -9721374.45847  -7523153.53247  23051017.7264   23051023.7944   23051016.721
        47.0004         42.0004
  -2709596.89447  -2068434.42246  24715433.4294   24715443.7494   24715433.080
        42.0004         38.0004
  -2191998.66747  -1657265.06546  23728981.5534   23728989.1904   23728981.258
        46.0004         41.0004
 -17380034.98749 -13519667.86848  20661398.3514   20661400.1384   20661397.894
        56.0004         52.0004
 -18853105.97448 -14635679.66248  21526896.9534   21526898.9714   21526895.729
        53.0004         48.0004
 15  5  1  0 24 30.0000000  0 10G15G04G13G24G11G01G06G30G17G28
  -9845857.79548  -7630936.34247  23176874.8534   23176879.0294   23176874.959
        48.0004         44.0004
  -1537296.44647  -1183073.60546  24505248.4134   24505252.8644   24505247.290
        42.0004         38.0004
 -10585121.54347  -8196113.21047  22943111.6204   22943115.4404   22943110.874
        46.0004         42.0004
  -9290747.42347  -7198883.95946  23374827.5694   23374833.5364   23374826.581
        46.0004         41.0004
  -6956383.24247  -5374552.72746  23934716.7604   23934719.4464   23934715.444
        42.0004         38.0004
  -9691072.19347  -7499541.38947  23056784.8104   23056790.8814   23056783.945
        47.0004         42.0004
  -2820010.31347  -2154470.53546  24694423.6824   24694434.3034   24694421.377
        42.0004         37.0004
  -2085203.99747  -1574048.58246  23749304.6574   23749312.1954   23749303.754
        45.0004         40.0004
 -17394378.51349 -13530844.62548  20658668.9594   20658670.6694   20658668.157
        56.0004         52.0004
 -18807673.13648 -14600277.45948  21535541.8404   21535544.3794   21535541.830
        53.0004         48.0004
 15  5  1  0 25  0.0000000  0 10G15G04G13G24G11G01G06G30G17G28
  -9798170.83048  -7593777.72047  23185950.0774   23185954.1434   23185948.914
        48.0004         44.0004
  -1460946.98947  -1123580.61046  24519777.5404   24519780.6924   24519775.987
        42.0004         37.0004
 -10492045.18747  -8123586.24847  22960822.8944   22960828.0374   22960822.567
        47.0004         42.0004
  -9385332.67647  -7272586.66946  23356828.4234   23356833.9924   23356826.628
        46.0004         41.0004
  -6871624.14347  -5308506.71046  23950845.6804   23950848.2914   23950844.641
        42.0004         38.0004
  -9660176.65547  -7475466.94447  23062663.5344   23062669.6764   23062662.156
        47.0004         42.0004
  -2930425.66946  -2240508.15746  24673410.6154   24673421.3464   24673410.522
        41.0004         36.0004
  -1978232.60347  -1490694.39946  23769659.7364   23769667.1114   23769659.466
        45.0004         40.0004
 -17408234.09049 -13541641.16248  20656032.2054   20656034.2204   20656031.494
        57.0004         52.0004
 -18762035.34848 -14564715.55748  21544226.7784   21544229.6554   21544226.451
        52.0004         48.0004
 15  5  1  0 25 30.0000000  0 10G15G04G13G24G11G01G06G30G17G28
  -9750016.30548  -7556254.73047  23195113.5984   23195117.1684   23195112.356
        48.0004         44.0004
  -1384152.34147  -1063740.69446  24534389.4524   24534394.2194   24534391.007
        42.0004         37.0004
 -10398656.06647  -8050815.57847  22978595.5364   22978599.5304   22978594.928
        47.0004         42.0004
  -9479684.96747  -7346107.83946  23338874.1564   23338879.0164   23338871.947
        46.0004         41.0004
  -6786457.58947  -5242143.22046  23967052.6474   23967053.7554   23967052.148
        42.0004         37.0004
  -9628688.69347  -7450930.87647  23068655.9674   23068662.4024   23068654.889
        47.0004         42.0004
  -3040840.12846  -2326545.05145  24652399.0674   24652409.0784   24652397.793
        40.0004         35.0004
  -1871086.22147  -1407203.86146  23790049.2544   23790057.7214   23790048.963
        45.0004         41.0004
 -17421601.85949 -13552057.59048  20653488.1874   20653490.4384   20653487.733
        57.0004         52.0004
