     2.11           OBSERVATION DATA    G (GPS)             RINEX VERSION / TYPE
teqc  2013Mar15                         20160913 13:06:34UTCPGM / RUN BY / DATE
OSX ker:10.8.0|Core 2 Duo|gcc 4.2 -m64|OSX ker:10.8.0+|=+   COMMENT
Linux 2.4.21-27.ELsmp|Opteron|gcc -static|Linux x86_64|=+   COMMENT
HEADER CHANGED BY EPN CB ON 2011-10-10                      COMMENT
TO BE CONFORM WITH THE INFORMATION IN                       COMMENT
ftp://epncb.oma.be/pub/station/log/brus.log                 COMMENT
                                                            COMMENT
teqc  2010Oct21                         20111010 00:01:17UTCCOMMENT
teqc  2010Oct21                         20111010 00:01:02UTCCOMMENT
teqc  2010Oct21                         20111009 01:01:01UTCCOMMENT
BIT 2 OF LLI FLAGS DATA COLLECTED UNDER A/S CONDITION       COMMENT
 SNR is mapped to RINEX snr flag value [0-9]                COMMENT
  L1 & L2: min(max(int(snr_dBHz/6), 0), 9)                  COMMENT
pseudorange smoothing corrections not applied               COMMENT
COORDINATES IN ETRF2000                                     COMMENT
Forced Modulo Decimation to 30 seconds                      COMMENT
BRUS                                                        MARKER NAME
13101M004                                                   MARKER NUMBER
Carine Bruyninx     ROB                                     OBSERVER / AGENCY
RT919994505         ASHTECH Z-XII3T     1L01-1D04           REC # / TYPE / VERS
CR519994604         ASH701945B_M    NONE                    ANT # / TYPE
  4027894.0130   307045.5980  4919474.9120                  APPROX POSITION XYZ
        3.9702        0.0000        0.0000                  ANTENNA: DELTA H/E/N
     1     1                                                WAVELENGTH FACT L1/2
     7    L1    L2    C1    P2    P1    S1    S2            # / TYPES OF OBSERV
    30.0000                                                 INTERVAL
teqc windowed: start @ 2011 Oct  9 12:00:00.000             COMMENT
teqc windowed: delta = 21600.000 sec                        COMMENT
  2011    10     9    12     0    0.0000000     GPS         TIME OF FIRST OBS
                                                            END OF HEADER
 11 10  9 12  0  0.0000000  0 10G06G25G21G23G31G05G16G03G30G29
  -7282666.70349  -5654293.82849  22588156.6074   22588162.9524   22588156.3844
       221.0004        165.0004
   -589938.44449   -445427.63349  24733153.0734   24733165.8104   24733152.9724
       206.0004        137.0004
 -18613591.64549 -14237352.45249  21200262.1364   21200264.9044   21200261.6944
       240.0004        196.0004
   3927547.02359    119097.28659  25325371.6404
       178.0004        111.0004
 -10369386.42549  -8045968.95149  22843795.1234   22843801.9044   22843796.1854
       223.0004        169.0004
   -512633.48849   -393731.32549  24290941.0854   24290948.4934   24290942.8414
       208.0004        147.0004
 -11428550.80049  -8405389.77449  22192411.5394   22192415.2164   22192411.5214
       227.0004        172.0004
  -3039097.33349  -2350652.66549  23465194.8104   23465199.2914   23465194.7414
       211.0004        145.0004
 -16535861.87549 -12622254.73849  21212075.0324   21212080.2704   21212074.9934
       238.0004        189.0004
 -14622915.83649 -11090279.95849  21998031.2954   21998036.8934   21998032.2114
       232.0004        184.0004
 11 10  9 12  0 30.0000000  0 10G06G25G21G23G31G05G16G03G30G29
  -7363455.22249  -5717245.85049  22572783.3674   22572789.3064   22572782.8964
       222.0004        164.0004
   -480760.24649   -360354.00449  24753927.8234   24753943.7414   24753927.6644
       207.0004        137.0004
 -18646087.38349 -14262673.77749  21194077.8974   21194081.0664   21194077.8254
       240.0004        195.0004
   3989449.42659     20461.90359  25337147.1564
       176.0004         74.0004
 -10277206.83349  -7974140.82149  22861337.9504   22861343.3204   22861337.3694
       224.0004        169.0004
   -475956.18649   -365151.61949  24297921.6714   24297927.9454   24297921.3364
       208.0004        144.0004
 -11508856.96549  -8467965.95849  22177130.8894   22177134.2384   22177130.0464
       231.0004        174.0004
  -3143395.59149  -2431923.91349  23445346.8354   23445351.4824   23445345.4954
       209.0004        146.0004
 -16454769.91549 -12559066.24049  21227507.1864   21227511.5724   21227506.4864
       238.0004        189.0004
 -14546123.64549 -11030441.93349  22012645.4534   22012649.1864   22012645.5224
       232.0004        184.0004
 11 10  9 12  1  0.0000000  0 10G06G25G21G23G31G05G16G03G30G29
  -7444037.11149  -5780036.88749  22557449.9134   22557454.9024   22557449.4104
       222.0004        165.0004
   -371486.06649   -275205.59349  24774723.2394   24774736.1614   24774723.4324
       211.0004        140.0004
 -18678125.40849 -14287638.44949  21187981.4944   21187984.6414   21187980.7274
       239.0004        196.0004
   4051706.27659     68994.45959  25348991.4064
       168.0004        106.0004
 -10184738.66749  -7902087.85049  22878936.8364   22878939.8224   22878935.2604
       226.0004        169.0004
   -438730.70949   -336144.76249  24305005.1324   24305010.8964   24305007.1504
       209.0004        145.0004
 -11588888.65249  -8530328.29449  22161902.4204   22161904.6724   22161900.9494
       232.0004        175.0004
  -3247570.35649  -2513098.92649  23425524.0804   23425527.8314   23425521.8104
       210.0004        144.0004
 -16373270.23849 -12495560.06249  21243016.3684   21243020.6774   21243015.5524
       238.0004        189.0004
 -14469127.62549 -10970445.07849  22027297.3484   22027301.2814   22027297.3094
       232.0004        183.0004
 11 10  9 12  1 30.0000000  0 10G06G25G21G23G31G05G16G03G30G29
  -7524411.05149  -5842665.87649  22542154.1834   22542160.1904   22542155.2254
       222.0004        166.0004
   -262116.99149   -189983.24849  24795536.5644   24795549.8114   24795536.4564
       211.0004        141.0004
 -18709706.00149 -14312246.68149  21181972.2514   21181974.9304   21181971.6374
       240.0004        196.0004
   4114313.07659    117814.84259  25360912.4834
       170.0004        107.0004
 -10091984.57349  -7829812.05349  22896583.5934   22896590.2874   22896584.5614
       219.0004        167.0004
   -400958.07549   -306711.54849  24312192.8544   24312199.6074   24312194.9834
       210.0004        147.0004
 -11668643.51249  -8592474.88749  22146724.0514   22146727.7404   22146722.2274
       226.0004        172.0004
  -3351620.23049  -2594176.68149  23405722.0334   23405728.3054   23405722.4054
       212.0004        146.0004
 -16291364.13549 -12431737.17149  21258601.5804   21258606.8524   21258601.4094
       237.0004        189.0004
 -14391928.79949 -10910290.18849  22041987.0454   22041991.8204   22041987.5924
       232.0004        182.0004
 11 10  9 12  2  0.0000000  0 10G06G25G21G23G31G05G16G03G30G29
  -7604577.26649  -5905132.97349  22526898.8184   22526904.4774   22526899.0524
       221.0004        166.0004
   -152655.61049   -104688.95149  24816365.3924   24816379.5114   24816364.4314
       212.0004        140.0004
 -18740830.01349 -14336499.12849  21176048.8264   21176052.3084   21176048.3524
       238.0004        196.0004
   4177270.63459     16774.23459  25372890.8044
       163.0004         74.0004
  -9998948.19449  -7757316.27549  22914286.8984   22914293.2464   22914288.7934
       220.0004        166.0004
   -362640.25449   -276853.52449  24319484.0994   24319490.6234   24319485.2814
       208.0004        144.0004
 -11748120.47549  -8654404.94349  22131599.1084   22131604.7644   22131598.8944
       229.0004        174.0004
  -3455545.43849  -2675157.28649  23385945.2754   23385950.1794   23385944.2844
       210.0004        144.0004
 -16209054.46949 -12367599.82149  21274265.5504   21274270.1704   21274265.1694
       239.0004        189.0004
 -14314529.19849 -10849978.85749  22056716.6314   22056720.8274   22056716.3404
       233.0004        183.0004
 11 10  9 12  2 30.0000000  0  9G06G25G21G31G05G16G03G30G29
  -7684533.65449  -5967436.59049  22511684.3294   22511689.3834   22511683.8514
       223.0004        167.0004
    -43101.95049    -19322.73849  24837212.8834   24837227.9454   24837212.2694
       206.0004        137.0004
 -18771494.17749 -14360393.27049  21170213.6764   21170216.9134   21170213.8844
       239.0004        197.0004
  -9905630.72949  -7684601.47749  22932046.7184   22932052.0194   22932046.8704
       222.0004        166.0004
   -323777.09149   -246570.53549  24326881.4134   24326885.9314   24326879.7604
       209.0004        146.0004
 -11827316.34649  -8716115.97549  22116529.6094   22116533.3164   22116529.7584
       230.0004        175.0004
  -3559342.98149  -2756038.39049  23366193.6664   23366200.4624   23366193.4254
       208.0004        146.0004
 -16126341.31749 -12303148.06149  21290004.6224   21290010.2434   21290004.3424
       236.0004        188.0004
 -14236928.57649 -10789510.87949  22071483.2964   22071487.5884   22071483.2874
       232.0004        183.0004
 11 10  9 12  3  0.0000000  0  9G06G25G21G31G05G16G03G30G29
  -7764280.31749  -6029576.78849  22496508.8604   22496513.5474   22496509.4614
       222.0004        166.0004
     66541.60649     66113.49949  24858075.5694   24858092.1294   24858078.1234
       204.0004        135.0004
 -18801699.58149 -14383929.92849  21164466.4114   21164469.4254   21164465.9254
       240.0004        197.0004
  -9812036.22849  -7611670.83849  22949855.2984   22949863.4454   22949856.6114
       218.0004        165.0004
   -284370.78549   -215864.31249  24334378.7694   24334384.4704   24334378.8774
       207.0004        143.0004
 -11906229.83649  -8777606.96149  22101512.0514   22101516.5004   22101511.5524
       227.0004        173.0004
  -3663012.75749  -2836819.91049  23346465.7204   23346471.7914   23346466.1804
       212.0004        145.0004
 -16043227.39849 -12238384.02549  21305820.0334   21305825.8454   21305819.8984
       234.0004        187.0004
 -14159129.19249 -10728888.01949  22086287.9504   22086292.1964   22086288.4424
       233.0004        183.0004
 11 10  9 12  3 30.0000000  0  9G06G25G21G31G05G16G03G30G29
  -7843815.85749  -6091552.47349  22481372.7884   22481379.8724   22481372.8864
       223.0004        167.0004
    176274.04449    151619.00849  24878959.6884   24878972.0394   24878960.1904
       203.0004        133.0004
 -18831445.78449 -14407108.76749  21158805.1394   21158808.4504   21158805.1104
       239.0004        197.0004
  -9718166.89149  -7538526.02149  22967719.8594   22967724.0294   22967719.6914
       222.0004        165.0004
   -244421.93949   -184735.36349  24341980.3684   24341987.1144   24341982.8804
       208.0004        143.0004
 -11984858.55149  -8838876.04349  22086549.4004   22086554.3244   22086548.7014
       228.0004        173.0004
  -3766552.79549  -2917500.38849  23326760.8994   23326766.4344   23326761.5704
       209.0004        144.0004
 -15959713.89049 -12173308.61149  21321712.6844   21321718.6554   21321712.1124
       236.0004        187.0004
 -14081131.29049 -10668110.45749  22101130.3744   22101134.1154   22101130.9554
       232.0004        182.0004
 11 10  9 12  4  0.0000000  0  9G06G25G21G31G05G16G03G30G29
  -7923140.12249  -6153363.53249  22466278.6494   22466283.6584   22466279.0884
       224.0004        168.0004
    286093.31949    237192.21649  24899858.0824   24899872.7564   24899856.7034
       198.0004        131.0004
 -18860732.67549 -14429929.69849  21153232.7224   21153235.4454   21153232.4674
       240.0004        197.0004
  -9624026.12649  -7465169.69449  22985634.8194   22985638.6394   22985635.3674
       222.0004        163.0004
   -203932.54649   -153185.17549  24349685.7034   24349692.0854   24349687.2734
       207.0004        142.0004
 -12063200.95849  -8899922.05149  22071642.2094   22071646.7164   22071642.0764
       228.0004        175.0004
  -3869962.53849  -2998079.34349  23307083.9714   23307088.5334   23307083.4524
       208.0004        144.0004
 -15875803.02449 -12107923.58749  21337681.4504   21337685.8264   21337680.3664
       236.0004        186.0004
 -14002936.84449 -10607179.76249  22116010.2544   22116014.8594   22116010.6984
       231.0004        181.0004
 11 10  9 12  4 30.0000000  0  9G06G25G21G31G05G16G03G30G29
  -8002251.76849  -6215008.92249  22451225.4564   22451229.9644   22451224.7724
       226.0004        167.0004
    395998.42949    322832.20549  24920773.2914   24920788.1624   24920771.0494
       203.0004        131.0004
 -18889558.85049 -14452391.63449  21147747.2834   21147750.1644   21147746.7374
       240.0004        197.0004
  -9529616.12749  -7391603.58749  23003598.7464   23003605.4744   23003598.3764
       217.0004        164.0004
   -162903.50549   -121214.49849  24357492.7974   24357499.7324   24357492.9224
       206.0004        140.0004
 -12141254.47249  -8960742.92849  22056788.1114   22056792.3054   22056788.1494
       228.0004        174.0004
  -3973240.44449  -3078555.50449  23287427.8084   23287436.0924   23287428.9014
       206.0004        145.0004
 -15791496.12849 -12042229.94949  21353723.8454   21353728.7254   21353723.1404
       235.0004        186.0004
 -13924546.58049 -10546096.48549  22130926.7204   22130931.7034   22130927.0134
       230.0004        180.0004
 11 10  9 12  5  0.0000000  0  9G06G25G21G31G05G16G03G30G29
  -8081149.86449  -6276487.88449  22436211.5384   22436215.9914   22436210.3834
       225.0004        167.0004
    505987.86549    408538.00149  24941703.5644   24941716.4964   24941703.0474
       194.0004        127.0004
 -18917924.05149 -14474494.36849  21142349.2454   21142351.8954   21142349.0304
       239.0004        197.0004
  -9434939.52249  -7317829.72849  23021615.8404   23021621.6534   23021616.8924
       222.0004        165.0004
   -121335.83849    -88824.11549  24365403.5814   24365407.6314   24365403.4094
       209.0004        140.0004
 -12219017.18249  -9021337.20449  22041990.9614   22041995.1314   22041991.6294
       229.0004        174.0004
  -4076385.20749  -3158927.95849  23267803.5444   23267808.9404   23267803.1534
       210.0004        145.0004
 -15706794.86249 -11976229.03049  21369843.2304   21369847.2674   21369842.0084
       236.0004        186.0004
 -13845961.66349 -10484861.52649  22145881.3864   22145885.8734   22145882.9844
       231.0004        180.0004
 11 10  9 12  5 30.0000000  0  9G06G25G21G31G05G16G03G30G29
  -8159834.53449  -6337800.55949  22421235.7984   22421242.9494   22421237.7234
       224.0004        167.0004
    616059.50649    494307.90449  24962649.1464   24962662.6284   24962647.1734
       187.0004        124.0004
 -18945828.63449 -14496238.17949  21137039.3784   21137042.1914   21137038.8424
       239.0004        197.0004
  -9340000.19649  -7243851.15149  23039682.8024   23039687.8074   23039682.5414
       221.0004        164.0004
    -79232.04149    -56016.00849  24373415.8894   24373420.9674   24373417.4094
       206.0004        141.0004
 -12296487.69849  -9081703.81649  22027249.3364   22027251.3504   22027248.3684
       229.0004        174.0004
  -4179396.55149  -3239196.46749  23248200.7634   23248207.0424   23248200.1444
       210.0004        148.0004
 -15621701.76649 -11909922.77549  21386034.6664   21386039.7914   21386034.2504
       236.0004        186.0004
 -13767184.00149 -10423476.38449  22160872.7754   22160877.1964   22160872.5774
       231.0004        180.0004
 11 10  9 12  6  0.0000000  0  9G06G25G21G31G05G16G03G30G29
  -8238303.72349  -6398945.32849  22406304.4764   22406309.8794   22406304.7734
       224.0004        168.0004
    726212.71549    580141.24149  24983608.3254   24983624.0994   24983610.1914
       188.0004        125.0004
 -18973271.41049 -14517622.14349  21131817.0144   21131819.8634   21131816.5904
       239.0004        197.0004
  -9244799.89349  -7169669.22949  23057798.5644   23057803.4934   23057798.2134
       219.0004        162.0004
    -36592.02049    -22790.04549  24381529.6854   24381536.4884   24381527.6664
       206.0004        138.0004
 -12373663.13449  -9141840.48749  22012562.5634   22012567.4724   22012562.1934
       228.0004        173.0004
  -4282271.72649  -3319358.83849  23228623.9234   23228627.7794   23228622.7634
       212.0004        142.0004
 -15536217.55049 -11843311.74649  21402301.9964   21402307.4244   21402302.2494
       236.0004        186.0004
 -13688213.68149 -10361941.11149  22175900.0884   22175904.8424   22175900.3984
       230.0004        179.0004
 11 10  9 12  6 30.0000000  0  9G06G25G21G31G05G16G03G30G29
  -8316556.86249  -6459921.74449  22391412.7774   22391418.9594   22391413.0154
       222.0004        167.0004
    836445.98949    666036.94249  25004586.2454   25004604.9374   25004585.2884
       189.0004        123.0004
 -19000252.06349 -14538646.00649  21126682.6524   21126685.6544   21126682.1564
       239.0004        197.0004
  -9149341.27949  -7095286.03149  23075965.2124   23075969.2484   23075965.1974
       223.0004        167.0004
      6582.20649     10852.22249  24389745.9384   24389749.9724   24389746.2874
       206.0004        139.0004
 -12450541.60849  -9201745.74749  21997933.7954   21997937.7104   21997932.9794
       230.0004        176.0004
  -4385009.98949  -3399414.58649  23209074.0724   23209078.7814   23209073.4014
       210.0004        147.0004
 -15450344.04449 -11776397.38549  21418642.6844   21418648.3684   21418642.4624
       234.0004        185.0004
 -13609051.91849 -10300256.66449  22190964.3494   22190968.5104   22190964.8684
       229.0004        178.0004
 11 10  9 12  7  0.0000000  0  9G06G25G21G31G05G16G03G30G29
  -8394594.15849  -6520729.97349  22376562.5094   22376568.4854   22376563.0694
       222.0004        167.0004
    946756.86249    751993.14249  25025578.7824                   25025576.6454
       185.0004        119.0004
 -19026771.07949 -14559310.15549  21121636.4854   21121638.7474   21121635.9894
       239.0004        197.0004
  -9053628.46349  -7020704.72049  23094178.5844   23094183.9704   23094178.7194
       222.0004        167.0004
     50288.24849     44908.85249  24398061.6924   24398067.0064   24398063.2374
       206.0004        140.0004
 -12527121.91849  -9261418.67349  21983360.7614   21983364.2914   21983360.2114
       229.0004        176.0004
  -4487611.23649  -3479363.52949  23189549.9024   23189555.3284   23189549.4174
       212.0004        149.0004
 -15364084.03249 -11709181.85149  21435057.8594   21435063.3844   21435057.5714
       235.0004        184.0004
 -13529700.96749 -10238424.79049  22206064.3384   22206068.3814   22206065.4834
       231.0004        178.0004
 11 10  9 12  7 30.0000000  0  9G06G25G21G31G05G16G03G30G29
  -8472414.36349  -6581369.05549  22361755.0594   22361760.6544   22361754.4704
       225.0004        168.0004
   1057144.27249    838009.04449  25046583.7564                   25046585.5494
       189.0004        120.0004
 -19052827.50649 -14579613.84349  21116677.4164   21116680.9794   21116677.3564
       238.0004        197.0004
  -8957663.51349  -6945926.97249  23112439.4594   23112445.3214   23112440.3524
       222.0004        165.0004
     94525.60149     79379.50649  24406480.7784   24406486.7474   24406480.7504
       207.0004        139.0004
 -12603401.54949  -9320857.30349  21968843.4674   21968848.5704   21968843.4954
       227.0004        176.0004
  -4590073.66749  -3559204.23649  23170050.0304   23170056.6594   23170049.9834
       210.0004        145.0004
 -15277438.71249 -11641666.07349  21451546.4804   21451551.0944   21451545.9664
       235.0004        184.0004
 -13450161.48749 -10176446.01949  22221199.8124   22221205.1864   22221200.6604
       230.0004        180.0004
 11 10  9 12  8  0.0000000  0  9G06G25G21G31G05G16G03G30G29
  -8550015.83949  -6641837.68749  22346987.6664   22346993.6914   22346986.6174
       224.0004        169.0004
   1167607.50649    924083.95949  25067607.4224                   25067605.6684
       188.0004        119.0004
 -19078420.68249 -14599556.56149  21111807.6634   21111810.7244   21111807.4014
       239.0004        197.0004
  -8861448.78349  -6870954.58049  23130747.1194   23130755.4514   23130749.3244
       220.0004        168.0004
    139293.37249    114263.45649  24414999.1824   24415005.4714   24414999.3404
       202.0004        139.0004
 -12679378.08549  -9380059.75849  21954387.1754   21954390.2044   21954387.3594
       231.0004        177.0004
  -4692395.24249  -3638935.29749  23150578.8954   23150584.2124   23150580.2954
       213.0004        144.0004
 -15190409.33549 -11573851.02749  21468107.6374   21468112.2334   21468107.1124
       235.0004        184.0004
 -13370433.91749 -10114320.67749  22236372.0414   22236376.4644   22236371.9134
       231.0004        180.0004
 11 10  9 12  8 30.0000000  0  9G06G25G21G31G05G16G03G30G29
  -8627398.97849  -6702136.18349  22332262.1784   22332267.7064   22332261.7344
       225.0004        169.0004
   1278143.74849      9362.71749  25088642.1084
       193.0004         74.0004
 -19103551.42449 -14619138.94149  21107026.1704   21107028.3284   21107024.9234
       239.0004        198.0004
  -8764988.28049  -6795790.67649  23149104.7814   23149111.9834   23149105.3314
       223.0004        168.0004
    184588.72849    149558.53349  24423617.9894   24423624.7564   24423619.5634
       203.0004        142.0004
 -12755050.34749  -9439025.13049  21939987.2764   21939990.8734   21939987.3554
       231.0004        178.0004
  -4794575.69349  -3718556.39649  23131135.0994   23131140.8364   23131134.8864
       206.0004        147.0004
 -15102998.80449 -11505738.98749  21484740.4594   21484746.0114   21484740.5284
       233.0004        184.0004
 -13290520.13649 -10052050.24949  22251579.7954   22251583.3834   22251579.6564
       232.0004        180.0004
 11 10  9 12  9  0.0000000  0  9G06G25G21G31G05G16G03G30G29
  -8704561.56049  -6762262.81749  22317578.9034   22317583.7524   22317578.3194
       226.0004        170.0004
   1388752.95149     95559.33349  25109689.2624
       190.0004        101.0004
 -19128218.00549 -14638359.63649  21102330.8234   21102334.6154   21102331.0764
       239.0004        198.0004
  -8668283.27949  -6720436.26849  23167505.9524   23167512.4984   23167507.6344
       219.0004        164.0004
    230411.82649    185264.82549  24432339.2824   24432344.2104   24432339.3834
       206.0004        142.0004
 -12830415.03249  -9497750.81049  21925644.9334   21925648.8954   21925644.8874
       229.0004        177.0004
  -4896613.02949  -3798065.83949  23111717.6094   23111724.2604   23111718.3774
       210.0004        147.0004
 -15015207.48249 -11437330.22249  21501446.7504   21501452.3664   21501446.9234
       236.0004        183.0004
 -13210420.38549  -9989634.90449  22266822.0724   22266826.6514   22266821.6754
       232.0004        179.0004
 11 10  9 12  9 30.0000000  0  9G06G25G21G31G05G16G03G30G29
  -8781504.11849  -6822218.01749  22302936.9834   22302942.1864   22302937.3144
       225.0004        171.0004
   1499432.47849    181831.74749  25130751.7784
       180.0004        108.0004
 -19152421.26849 -14657219.30349  21097725.6944   21097728.9274   21097725.3804
       240.0004        197.0004
  -8571338.17049  -6644894.74149  23185954.5804   23185962.1174   23185955.3384
       221.0004        165.0004
    276759.85049    221380.13649  24441157.9344   24441165.4694   24441159.4724
       206.0004        141.0004
 -12905471.16849  -9556236.07449  21911363.2204   21911366.2254   21911363.1674
       232.0004        178.0004
  -4998506.68549  -3877463.45749  23092329.3904   23092334.9684   23092328.6344
       209.0004        148.0004
 -14927038.39649 -11368627.09849  21518225.4444   21518230.1824   21518224.7724
       235.0004        183.0004
 -13130136.93749  -9927076.42049  22282098.1334   22282103.5604   22282099.4854
       231.0004        179.0004
 11 10  9 12 10  0.0000000  0  9G06G25G21G31G05G16G03G30G29
  -8858225.56949  -6882000.91449  22288337.4614   22288343.3054   22288336.5394
       226.0004        171.0004
   1610180.94849      3610.90749  25151824.3624
       185.0004         74.0004
 -19176160.85049 -14675717.66049  21093207.8314   21093210.8954   21093208.2404
       238.0004        198.0004
  -8474155.35449  -6569168.00849  23204448.0214   23204455.8584   23204449.4504
       222.0004        167.0004
    323631.48949    257903.44349  24450077.5974   24450082.5784   24450079.0014
       207.0004        139.0004
 -12980216.77449  -9614479.37049  21897139.7384   21897142.4914   21897139.0964
       232.0004        179.0004
  -5100255.26749  -3956748.00549  23072966.2974   23072971.2544   23072965.6594
       212.0004        147.0004
 -14838493.28249 -11299630.96249  21535074.5734   21535079.7774   21535074.7044
       235.0004        183.0004
 -13049670.59849  -9864375.41449  22297411.9844   22297415.4224   22297411.8674
       232.0004        178.0004
 11 10  9 12 10 30.0000000  0  9G06G25G21G31G05G16G03G30G29
  -8934724.28949  -6941610.24649  22273780.5544   22273784.4904   22273780.3124
       227.0004        172.0004
   1720997.80359     89941.48259  25172915.1724
       178.0004         94.0004
 -19199435.43249 -14693853.67949  21088779.7524   21088782.2884   21088779.3154
       240.0004        198.0004
  -8376736.54949  -6493257.41349  23222988.1994   23222993.7854   23222987.6604
       221.0004        164.0004
    371026.27849    294834.40849  24459097.4534   24459101.6394   24459097.5004
       208.0004        139.0004
 -13054648.86549  -9672478.37149  21882975.4444   21882979.0474   21882975.7494
       232.0004        179.0004
  -5201856.78949  -4035917.91249  23053632.7934   23053638.7524   23053632.8714
       213.0004        151.0004
 -14749572.87149 -11230342.39049  21551996.3954   21552001.3944   21551995.7294
       236.0004        183.0004
 -12969021.46049  -9801531.98349  22312759.0564   22312761.7114   22312758.4844
       231.0004        178.0004
 11 10  9 12 11  0.0000000  0  9G06G25G21G31G05G16G03G30G29
  -9011000.16349  -7001045.94549  22259265.0474   22259270.7344   22259265.2884
       226.0004        171.0004
   1831880.66659    176242.15159  25194012.2634
       165.0004        109.0004
 -19222245.45749 -14711627.70649  21084438.9624   21084441.6284   21084438.3554
       239.0004        198.0004
  -8279085.66049  -6417165.93449  23241568.2884   23241575.4894   23241569.1494
       220.0004        163.0004
    418941.44949    332170.86149  24468214.5434   24468220.4974   24468214.3924
       204.0004        140.0004
 -13128766.21449  -9730232.10549  21868870.9924   21868873.9034   21868870.5204
       231.0004        179.0004
  -5303311.09049  -4114973.13849  23034327.2434   23034331.6614   23034327.1394
       216.0004        150.0004
 -14660280.05349 -11160763.62049  21568987.6874   21568993.1144   21568987.6994
       235.0004        183.0004
 -12888191.64849  -9738547.73849  22328139.0884   22328144.1144   22328139.5314
       230.0004        179.0004
 11 10  9 12 11 30.0000000  0  8G06G21G31G05G16G03G30G29
  -9087052.41349  -7060307.37749  22244792.3734   22244798.0034   22244792.5124
       226.0004        170.0004
 -19244591.12749 -14729039.89849  21080186.4854   21080189.0024   21080186.4314
       240.0004        198.0004
  -8181205.71849  -6340895.97349  23260195.4094   23260201.4994   23260195.1074
       219.0004        163.0004
    467375.33549    369911.55149  24477432.4424   24477437.7954   24477431.6954
       207.0004        140.0004
 -13202566.84449  -9787739.05249  21854827.0194   21854831.0964   21854826.6964
       231.0004        179.0004
  -5404616.64349  -4193912.47949  23015048.5314   23015052.1004   23015047.6294
       210.0004        146.0004
 -14570616.67449 -11090896.12149  21586050.8064   21586055.4244   21586049.8784
       235.0004        183.0004
 -12807182.28849  -9675423.62149  22343555.5074   22343559.6004   22343555.2924
       231.0004        179.0004
 11 10  9 12 12  0.0000000  0  8G06G21G31G05G16G03G30G29
  -9162879.84849  -7119393.64149  22230363.6384   22230369.1204   22230363.0974
       227.0004        172.0004
 -19266471.72149 -14746089.68949  21076022.5744   21076025.4724   21076022.6234
       239.0004        198.0004
  -8083098.86049  -6264449.20449  23278863.6844   23278872.0914   23278864.2564
       218.0004        163.0004
    516327.09549    408055.78249  24486746.9974   24486752.8974   24486746.8064
       203.0004        139.0004
 -13276048.13349  -9844997.15349  21840844.0374   21840848.4694   21840843.6864
       232.0004        179.0004
  -5505771.79249  -4272734.58849  22995798.1484   22995805.7084   22995797.5414
       212.0004        149.0004
 -14480583.82849 -11020740.71149  21603183.0294   21603188.0834   21603182.4764
       234.0004        183.0004
 -12725994.26549  -9612160.30449  22359006.2004   22359009.2074   22359005.0564
       231.0004        179.0004
 11 10  9 12 12 30.0000000  0  9G06G18G21G31G05G16G03G30G29
  -9238481.90849  -7178304.28749  22215976.7664   22215982.3254   22215977.3644
       226.0004        172.0004
    -62506.23749    -33598.78149  24520246.0284
       205.0004         74.0004
 -19287887.43949 -14762777.24149  21071947.5994   21071950.3374   21071946.9184
       239.0004        198.0004
  -7984768.52649  -6187828.32949  23297576.8054   23297583.1414   23297577.1364
       220.0004        163.0004
    565794.69049    446601.91349  24496160.7674   24496166.5074   24496161.7614
       209.0004        139.0004
 -13349208.39749  -9902005.11949  21826922.9334   21826926.3524   21826922.6444
       233.0004        180.0004
  -5606775.60849  -4351438.80649  22976578.5984   22976584.3894   22976579.6034
       217.0004        153.0004
 -14390184.01849 -10950299.36049  21620386.1484   21620390.3954   21620385.3664
       235.0004        182.0004
 -12644628.61749  -9548758.55049  22374487.0634   22374492.8214   22374488.0474
       229.0004        178.0004
 11 10  9 12 13  0.0000000  0  9G06G18G21G31G05G16G03G30G29
  -9313857.45449  -7237038.41849  22201633.5574   22201638.8644   22201634.0714
       227.0004        172.0004
   -153159.01949   -104236.54449  24502997.5144
       210.0004        114.0004
 -19308837.36949 -14779101.83849  21067960.4664   21067963.3084   21067960.3294
       239.0004        199.0004
  -7886216.89249  -6111034.96149  23316329.8614   23316336.4784   23316330.6874
       218.0004        156.0004
    615777.13949    485549.22249  24505672.1264   24505676.8844   24505671.5944
       205.0004        138.0004
 -13422045.15149  -9958760.99449  21813061.3114   21813064.8094   21813061.1914
       230.0004        177.0004
  -5707626.28449  -4430023.66849  22957388.3364   22957392.5234   22957386.5314
       214.0004        149.0004
 -14299418.58649 -10879573.10249  21637658.2544   21637662.8324   21637657.8364
       234.0004        181.0004
 -12563086.12449  -9485219.00149  22390005.4864   22390009.0704   22390005.3604
       230.0004        176.0004
 11 10  9 12 13 30.0000000  0  9G06G18G21G31G05G16G03G30G29
  -9389006.11849  -7295595.75749  22187333.2904   22187337.8444   22187332.9004
       227.0004        171.0004
   -243731.01449   -174810.84949  24485759.3644
       208.0004        110.0004
 -19329321.88049 -14795063.77649  21064063.2754   21064066.0094   21064062.5244
       239.0004        199.0004
  -7787447.33849  -6034071.81349  23335124.1614   23335132.0744   23335125.0464
       218.0004        159.0004
    666272.16649    524895.95649  24515279.6834   24515287.8594   24515281.1924
       202.0004        139.0004
 -13494556.94349 -10015263.64549  21799262.6384   21799267.1374   21799263.4784
       233.0004        180.0004
  -5808323.34849  -4508488.84949  22938224.5674   22938230.7604   22938225.9934
       216.0004        151.0004
 -14208289.84449 -10808563.74849  21654998.9664   21655004.1554   21654998.7984
       234.0004        182.0004
 -12481368.46849  -9421542.95949  22405556.7014   22405560.2464   22405556.3074
       230.0004        178.0004
 11 10  9 12 14  0.0000000  0  9G06G18G21G31G05G16G03G30G29
  -9463927.43449  -7353975.94449  22173075.5004   22173079.9824   22173075.8864
       226.0004        172.0004
   -334220.46849    -27573.37249  24468541.0174
       204.0004         74.0004
 -19349341.04749 -14810663.11049  21060252.7184   21060255.9694   21060253.3274
       238.0004        199.0004
  -7688463.10749  -5956941.38749  23353960.8544   23353968.4434   23353961.6804
       217.0004        161.0004
    717277.49049    564640.37449  24524986.1084   24524991.8894   24524987.1744
       205.0004        138.0004
 -13566741.77049 -10071511.53649  21785527.6004   21785530.9864   21785527.2924
       234.0004        182.0004
  -5908865.74049  -4586833.49849  22919096.0554   22919097.6884   22919095.3314
       221.0004        155.0004
 -14116799.93649 -10737272.98849  21672407.8864   21672414.8354   21672408.7644
       232.0004        181.0004
 -12399476.87749  -9357731.38449  22421138.2974   22421144.4174   22421138.4534
       228.0004        175.0004
 11 10  9 12 14 30.0000000  0  9G06G18G21G31G05G16G03G30G29
  -9538619.80949  -7412177.74449  22158862.8164   22158866.7584   22158863.0984
       228.0004        172.0004
   -424623.82849    -98016.93149  24451337.1194
       205.0004        128.0004
 -19368894.29749 -14825899.37749  21056532.8214   21056535.0494   21056531.9184
       239.0004        199.0004
  -7589266.34849  -5879645.38449  23372836.1344   23372843.3824   23372837.7734
       211.0004        155.0004
    768792.53149    604781.95249  24534789.8954   24534795.5574   24534790.3874
       207.0004        139.0004
 -13638597.28249 -10127502.81049  21771853.7424   21771857.2554   21771853.4484
       232.0004        181.0004
  -6009251.67049  -4665056.22949  22899990.5334   22899995.9644   22899989.7254
       214.0004        152.0004
 -14024950.15849 -10665701.78049  21689888.0114   21689892.8774   21689887.2264
       234.0004        180.0004
 -12317411.59949  -9293784.48449  22436755.6034   22436760.5424   22436755.5554
       230.0004        177.0004
 11 10  9 12 15  0.0000000  0  9G06G18G21G31G05G16G03G30G29
  -9613082.77249  -7470200.76749  22144692.2344   22144696.4844   22144691.4594
       228.0004        174.0004
   -514938.34549   -168390.99449  24434149.9634
       205.0004        112.0004
 -19387981.56949 -14840772.56449  21052899.4564   21052902.9264   21052899.5764
       238.0004        199.0004
  -7489860.10249  -5802186.07849  23391754.8274   23391760.1794   23391754.8584
       215.0004        157.0004
    820815.16649    645319.00949  24544689.4524   24544695.3024   24544689.7464
       206.0004        140.0004
 -13710121.52049 -10183235.95649  21758243.0874   21758245.6944   21758241.8824
       234.0004        179.0004
  -6109479.67149  -4743155.87449  22880917.2274   22880920.5374   22880917.2094
       217.0004        151.0004
 -13932742.50549 -10593851.72349  21707434.5934   21707439.6264   21707433.7374
       233.0004        182.0004
 -12235174.13349  -9229703.41449  22452405.7334   22452410.3404   22452405.6904
       231.0004        179.0004
 11 10  9 12 15 30.0000000  0  8G06G21G31G05G16G03G30G29
  -9687315.89849  -7528044.70149  22130565.6784   22130571.8224   22130565.7554
       226.0004        172.0004
 -19406603.27549 -14855282.94949  21049357.0124   21049359.2404   21049356.1594
       239.0004        199.0004
  -7390247.82549  -5724566.24949  23410710.5314   23410717.7034   23410711.8064
       217.0004        160.0004
    873343.18749    686249.93349  24554685.6604   24554691.0914   24554685.8634
       205.0004        139.0004
 -13781313.16149 -10238709.93749  21744695.7384   21744698.7124   21744695.5704
       234.0004        181.0004
  -6209549.26849  -4821132.13749  22861874.0304   22861878.9904   22861872.9674
       214.0004        153.0004
 -13840179.55749 -10521724.82349  21725047.2644   21725053.1474   21725048.0004
       231.0004        180.0004
 -12152766.06449  -9165489.39649  22468087.7654   22468092.3804   22468087.9304
       232.0004        178.0004
 11 10  9 12 16  0.0000000  0  8G06G21G31G05G16G03G30G29
  -9761317.51449  -7585708.23549  22116484.0794   22116489.0244   22116485.0684
       228.0004        174.0004
 -19424758.22449 -14869429.64349  21045900.4644   21045904.7244   21045900.8804
       238.0004        199.0004
  -7290431.04849  -5646787.08549  23429704.6244   23429710.7594   23429703.8994
       214.0004        158.0004
    926375.99149    727574.15149  24564777.4224   24564781.7364   24564777.1074
       203.0004        138.0004
 -13852168.68649 -10293921.99949  21731213.2894   21731215.8334   21731212.0474
       234.0004        182.0004
  -6309458.22549  -4898983.21549  22842862.0754   22842867.9724   22842862.5714
       213.0004        153.0004
 -13747262.07849 -10449321.65449  21742729.7954   21742735.5654   21742729.0264
       232.0004        179.0004
 -12070187.60149  -9101142.57449  22483801.5914   22483806.4974   22483801.0194
       231.0004        176.0004
 11 10  9 12 16 30.0000000  0  8G06G21G31G05G16G03G30G29
  -9835087.30449  -7643191.14449  22102445.7214   22102450.5284   22102446.0054
       225.0004        173.0004
 -19442446.95649 -14883213.04949  21042535.5314   21042538.5804   21042535.0634
       239.0004        199.0004
  -7190413.62149  -5568851.56749  23448736.5444   23448743.1284   23448737.6964
       216.0004        157.0004
    979911.15349    769289.89149  24574965.6254   24574970.4304   24574965.2104
       207.0004        139.0004
 -13922686.85249 -10348871.18549  21717793.2634   21717796.9034   21717792.7464
       234.0004        183.0004
  -6409205.84549  -4976708.49449  22823880.5604   22823887.3304   22823880.8884
       216.0004        156.0004
 -13653992.53649 -10376644.15849  21760478.6304   21760483.5594   21760478.5354
       233.0004        180.0004
 -11987440.28949  -9036664.20549  22499547.3394   22499553.0834   22499548.5704
       227.0004        175.0004
 11 10  9 12 17  0.0000000  0  9G06G18G21G31G05G16G03G30G29
  -9908624.61349  -7700492.89549  22088451.4644   22088457.9654   22088452.1254
       227.0004        174.0004
   -875256.98649   -232144.66149  24365584.6244   24365592.9344
       207.0004        130.0004
 -19459669.63549 -14896633.29849  21039258.1094   21039261.1924   21039258.0074
       238.0004        199.0004
  -7090198.15449  -5490761.68849  23467808.9564   23467814.4054   23467808.3434
       219.0004        158.0004
   1033946.71849    811395.54549  24585247.0854   24585254.0464   24585246.8454
       209.0004        140.0004
 -13992865.78049 -10403556.03549  21704437.1674   21704441.8564   21704437.9394
       232.0004        182.0004
  -6508790.65949  -5054306.97349  22804929.9534   22804935.0324   22804931.6384
       216.0004        154.0004
 -13560373.05149 -10303693.98049  21778295.2074   21778298.8754   21778293.5904
       233.0004        179.0004
 -11904525.32749  -8972055.19749  22515325.7054   22515330.4494   22515326.3274
       228.0004        175.0004
 11 10  9 12 17 30.0000000  0  9G06G18G21G31G05G16G03G30G29
  -9981927.80049  -7757612.20849  22074503.7844   22074508.5594   22074502.9374
       228.0004        173.0004
   -965087.43049   -302142.19449  24348488.6994   24348498.1884   24348490.9934
       210.0004        134.0004
 -19476425.31849 -14909689.66049  21036069.6524   21036072.3924   21036069.2604
       238.0004        199.0004
  -6989787.06649  -5412519.43349  23486915.5014   23486922.8814   23486915.7344
       219.0004        161.0004
   1088481.96649    853890.55349  24595625.6624   24595628.6994   24595625.6374
       206.0004        138.0004
 -14062702.57349 -10457974.27949  21691148.7104   21691151.9094   21691148.7774
       234.0004        183.0004
  -6608211.06349  -5131777.35949  22786009.7034   22786015.1174   22786010.1504
       213.0004        152.0004
 -13466404.76249 -10230472.00949  21796174.4434   21796180.6294   21796175.1674
       232.0004        180.0004
 -11821442.92949  -8907315.71749  22531134.9604   22531140.1454   22531135.2034
       226.0004        173.0004
 11 10  9 12 18  0.0000000  0  9G06G18G21G31G05G16G03G30G29
 -10054997.38349  -7814549.49549  22060598.9114   22060602.8914   22060598.2454
       229.0004        175.0004
  -1054813.73249   -372058.57749  24331415.3444   24331422.7424   24331415.9894
       213.0004        135.0004
 -19492715.26349 -14922383.10649  21032969.9334   21032972.3814   21032969.4784
       239.0004        199.0004
  -6889184.59349  -5334128.03049  23506058.8384   23506065.8244   23506060.1374
       218.0004        159.0004
   1143513.19049    896772.03049  24606097.8444   24606103.2564   24606098.4634
       207.0004        138.0004
 -14132196.83649 -10512125.63149  21677925.1344   21677927.7984   21677924.6334
       234.0004        183.0004
  -6707466.57449  -5209119.20549  22767124.7334   22767130.0164   22767122.8774
       218.0004        157.0004
 -13372090.83049 -10156980.70949  21814123.4614   21814128.1934   21814122.6724
       233.0004        177.0004
 -11738195.28049  -8842447.46949  22546977.5274   22546982.2344   22546977.6034
       228.0004        173.0004
 11 10  9 12 18 30.0000000  0  9G06G18G21G31G05G16G03G30G29
 -10127831.20249  -7871303.07549  22046738.3544   22046743.2534   22046738.9874
       227.0004        173.0004
  -1144432.05649   -441890.77449  24314362.1584   24314369.6824   24314360.3054
       212.0004        135.0004
 -19508538.09549 -14934712.57149  21029959.5694   21029961.5804   21029958.7934
       240.0004        200.0004
  -6788391.91349  -5255588.40049  23525241.7174   23525246.6494   23525240.7224
       221.0004        159.0004
   1199040.49849    940040.04449  24616662.0274   24616670.1914   24616662.9734
       202.0004        135.0004
 -14201344.64549 -10566006.99849  21664766.0394   21664769.1764   21664765.3404
       233.0004        183.0004
  -6806554.81749  -5286330.75249  22748267.9744   22748272.9804   22748267.0314
       219.0004        156.0004
 -13277431.93249 -10083220.59449  21832136.6214   21832141.0964   21832135.6324
       232.0004        177.0004
 -11654782.43749  -8777450.49949  22562851.4164   22562855.8344   22562850.5004
       228.0004        172.0004
 11 10  9 12 19  0.0000000  0  9G06G18G21G31G05G16G03G30G29
 -10200429.59649  -7927873.19949  22032923.2494   22032928.4574   22032924.0464
       228.0004        175.0004
  -1233940.77349   -511637.59649  24297327.3454   24297336.2054   24297327.6664
       210.0004        137.0004
 -19523895.08049 -14946679.04049  21027036.0884   21027039.6144   21027036.1414
       239.0004        200.0004
  -6687413.19649  -5176903.78749  23544457.6324   23544461.8564   23544457.3224
       220.0004        158.0004
   1255060.61249    983692.01849  24627323.2624   24627328.9234   24627323.7164
       206.0004        135.0004
 -14270145.25949 -10619617.82249  21651673.5514   21651677.6904   21651673.9714
       235.0004        185.0004
  -6905475.96349  -5363412.08649  22729444.6804   22729447.0854   22729443.6784
       221.0004        154.0004
 -13182431.29449 -10009194.20449  21850214.2864   21850220.0214   21850213.6674
       230.0004        176.0004
 -11571206.49349  -8712326.44449  22578753.6624   22578758.0124   22578754.5174
       224.0004        170.0004
 11 10  9 12 19 30.0000000  0  9G06G18G21G31G05G16G03G30G29
 -10272791.46549  -7984259.01949  22019153.0604   22019158.9994   22019153.0324
       228.0004        175.0004
  -1323336.94549   -581296.75449  24280315.6044   24280323.1634   24280314.5934
       213.0004        138.0004
 -19538785.62749 -14958282.04849  21024203.4944   21024205.8384   21024202.5984
       240.0004        200.0004
  -6586251.05649  -5098076.29949  23563707.1014   23563714.0664   23563707.9744
       221.0004        163.0004
   1311571.98749   1027726.85749  24638077.1334   24638084.3604   24638077.6884
       201.0004        134.0004
 -14338596.62249 -10672956.51049  21638648.3294   21638650.8654   21638647.9534
       234.0004        184.0004
  -7004228.28449  -5440361.86949  22710651.8314   22710657.4954   22710651.7004
       219.0004        155.0004
 -13087090.32649  -9934902.61849  21868356.3324   21868362.3544   21868356.4464
       230.0004        175.0004
 -11487468.11249  -8647075.82149  22594689.2464   22594693.8964   22594689.8654
       226.0004        173.0004
 11 10  9 12 20  0.0000000  0  9G06G18G21G31G05G16G03G30G29
 -10344915.84049  -8040459.79749  22005429.3864   22005433.7104   22005428.8124
       229.0004        176.0004
  -1412617.62349   -650865.89649  24263325.6444   24263332.9484   24263325.5294
       205.0004        136.0004
 -19553209.77849 -14969521.62649  21021458.3144   21021460.6674   21021457.8744
       239.0004        200.0004
  -6484908.04949  -5019107.86049  23582990.4424   23582998.3454   23582990.9674
       218.0004        157.0004
   1368572.98049   1072143.20149  24648923.4034   24648929.4454   24648924.4604
       197.0004        134.0004
 -14406696.43149 -10726021.26149  21625688.4204   21625691.7764   21625688.0284
       233.0004        183.0004
  -7102810.18549  -5517178.85649  22691890.6514   22691897.1614   22691890.6284
       218.0004        155.0004
 -12991410.89149  -9860347.27049  21886563.2934   21886569.2644   21886563.4204
       229.0004        176.0004
 -11403568.30249  -8581699.40049  22610655.9094   22610658.9284   22610655.7104
       226.0004        173.0004
 11 10  9 12 20 30.0000000  0  9G06G18G21G31G05G16G03G30G29
 -10416801.69649  -8096474.70949  21991748.8644   21991753.7664   21991747.9464
       227.0004        176.0004
  -1501779.65649   -720342.54949  24246359.8114   24246367.2804   24246358.9644
       209.0004        135.0004
 -19567167.72549 -14980397.94149  21018801.7574   21018804.4784   21018801.9514
       239.0004        199.0004
  -6383386.77549  -4940000.50249  23602309.2714   23602316.1824   23602310.6624
       214.0004        154.0004
   1426062.08349   1116939.89349  24659863.9624   24659868.6844   24659865.4524
       201.0004        135.0004
 -14474442.12149 -10778810.07549  21612797.5974   21612800.1674   21612796.6804
       233.0004        184.0004
  -7201219.84249  -5593861.63349  22673166.4344   22673169.0084   22673163.6014
       217.0004        154.0004
 -12895394.68749  -9785529.53549  21904835.9204   21904841.2934   21904834.2414
       230.0004        176.0004
 -11319507.71749  -8516197.71149  22626649.7804   22626655.4474   22626650.6784
       225.0004        171.0004
 11 10  9 12 21  0.0000000  0  9G06G18G21G31G05G16G03G30G29
 -10488448.57149  -8152303.40949  21978115.4094   21978119.4894   21978115.3124
       229.0004        176.0004
  -1590821.14549   -789725.26849  24229415.0954   24229421.3624   24229413.6834
       207.0004        134.0004
 -19580659.48549 -14990910.98649  21016235.1024   21016237.0314   21016233.9004
       239.0004        199.0004
  -6281690.79949  -4860757.01849  23621663.0424   23621670.1994   23621664.4884
       218.0004        160.0004
   1484036.83049   1162115.02149  24670895.7224   24670902.7244   24670896.0564
       198.0004        134.0004
 -14541832.35349 -10831321.89749  21599974.4104   21599976.9254   21599973.1454
       235.0004        185.0004
  -7299456.71149  -5670409.78849  22654471.7284   22654476.3714   22654470.7974
       217.0004        155.0004
 -12799044.15849  -9710451.27849  21923169.3874   21923175.5524   21923168.9664
       228.0004        175.0004
 -11235287.77749  -8450571.85249  22642677.9374   22642682.4904   22642677.5944
       226.0004        171.0004
 11 10  9 12 21 30.0000000  0  9G06G18G21G31G05G16G03G30G29
 -10559855.22249  -8207944.89549  21964527.0854   21964532.3574   21964527.3524
       229.0004        177.0004
  -1679739.01849   -859011.70849  24212494.1424   24212500.2034   24212494.1104
       207.0004        134.0004
 -19593684.30649 -15001060.18749  21013755.4874   21013758.8704   21013755.7984
       239.0004        200.0004
  -6179822.37749  -4781379.18449  23641049.7064   23641053.3974   23641048.6674
       217.0004        156.0004
   1542495.75549   1207667.38949  24682021.2054   24682026.4934   24682020.4004
       201.0004        133.0004
 -14608864.50749 -10883554.71349  21587216.9784   21587221.0924   21587217.2054
       233.0004        186.0004
  -7397519.27149  -5746822.10549  22635810.6364   22635816.1074   22635809.4544
       216.0004        156.0004
 -12702360.80249  -9635113.66749  21941567.8294   21941575.0904   21941567.7324
       229.0004        176.0004
 -11150908.92949  -8384822.18249  22658734.9634   22658739.1594   22658734.9454
       227.0004        173.0004
 11 10  9 12 22  0.0000000  0  9G06G18G21G31G05G16G03G30G29
 -10631021.24249  -8263398.90949  21950984.5164   21950989.6234   21950985.2764
       229.0004        178.0004
  -1768530.55649   -928199.69249  24195597.7794   24195605.1174   24195596.8884
       207.0004        135.0004
 -19606242.99349 -15010846.15649  21011366.3604   21011369.2214   21011366.0364
       240.0004        199.0004
  -6077784.52749  -4701869.29349  23660462.9924   23660470.8604   23660463.6214
       209.0004        153.0004
   1601436.61449   1253595.29049  24693237.1824   24693242.0084   24693237.5274
       201.0004        132.0004
 -14675536.92649 -10935507.21849  21574529.8674   21574533.2224   21574529.1154
       233.0004        184.0004
  -7495406.16049  -5823097.52149  22617182.4884   22617188.3394   22617182.9164
       218.0004        157.0004
 -12605346.96149  -9559518.54349  21960031.0034   21960035.6134   21960029.8684
       231.0004        177.0004
 -11066372.73649  -8318949.88549  22674820.8674   22674826.2754   22674822.1214
       227.0004        172.0004
 11 10  9 12 22 30.0000000  0  9G06G18G21G31G05G16G03G30G29
 -10701945.71449  -8318664.67849  21937488.3234   21937493.3134   21937487.5594
       230.0004        178.0004
  -1857193.34449   -997287.36349  24178725.1814   24178732.0724   24178725.6104
       209.0004        135.0004
 -19618335.64549 -15020268.99449  21009064.5984   21009067.5734   21009064.5054
       238.0004        199.0004
  -5975580.33749  -4622229.83049  23679914.4814   23679920.7854   23679915.0734
       218.0004        156.0004
   1660857.71649   1299897.39949  24704544.3794   24704550.0374   24704545.6984
       196.0004        132.0004
 -14741847.70249 -10987177.91449  21561911.4684   21561914.8344   21561911.3494
       235.0004        185.0004
  -7593116.32549  -5899235.24049  22598588.8234   22598595.3644   22598588.4364
       218.0004        157.0004
 -12508004.61449  -9483667.44149  21978553.8144   21978557.5744   21978552.5754
       230.0004        174.0004
 -10981680.43549  -8252955.94749  22690937.8164   22690942.5864   22690938.6844
       228.0004        172.0004
 11 10  9 12 23  0.0000000  0  9G06G18G21G31G05G16G03G30G29
 -10772627.43749  -8373741.31849  21924037.8734   21924042.3574   21924038.1674
       229.0004        177.0004
  -1945723.91849  -1066271.99849  24161878.7334   24161885.8424   24161877.4334
       206.0004        137.0004
 -19629961.87049 -15029328.36649  21006852.9454   21006855.5244   21006852.0324
       239.0004        200.0004
  -5873212.14849  -4542462.52949  23699393.1554   23699402.1294   23699393.8394
       210.0004        156.0004
   1720757.25049   1346572.29649  24715943.9984   24715950.4284   24715945.0814
       197.0004        130.0004
 -14807794.19049 -11038564.76749  21549362.9564   21549366.1384   21549362.6064
       236.0004        187.0004
  -7690647.43749  -5975233.45049  22580028.4754   22580034.7584   22580028.4264
       217.0004        154.0004
 -12410335.21649  -9407561.48549  21997139.8844   21997145.2104   21997139.0434
       231.0004        176.0004
 -10896832.29049  -8186840.58049  22707084.5104   22707087.9544   22707083.9804
       225.0004        171.0004
 11 10  9 12 23 30.0000000  0  9G06G18G21G31G05G16G03G30G29
 -10843066.77449  -8428629.06749  21910633.7494   21910638.9964   21910634.2984
       229.0004        178.0004
  -2034121.02549  -1135152.65849  24145056.2594   24145064.2894   24145056.3154
       204.0004        137.0004
 -19641123.26749 -15038025.55049  21004727.9074   21004731.5074   21004728.4294
       238.0004        199.0004
  -5770683.89149  -4462570.56449  23718903.7684   23718911.0444   23718904.6754
       210.0004        151.0004
   1781131.97749   1393617.52149  24727430.7954   24727439.8614   24727431.5944
       193.0004        130.0004
 -14873375.60049 -11089667.13149  21536881.5824   21536886.2414   21536881.4964
       234.0004        185.0004
  -7788000.00549  -6051092.51749  22561504.5034   22561509.7664   22561503.1404
       219.0004        159.0004
 -12312342.03749  -9331203.24549  22015787.3244   22015792.0894   22015787.6864
       231.0004        175.0004
 -10811830.63749  -8120605.59049  22723257.9574   22723264.3204   22723258.9054
       225.0004        171.0004
 11 10  9 12 24  0.0000000  0  9G06G18G21G31G05G16G03G30G29
 -10913262.04349  -8483326.62149  21897276.2034   21897280.7454   21897275.2664
       229.0004        178.0004
  -2122381.04949  -1203926.49749  24128261.8674   24128268.1374   24128261.7014
       210.0004        138.0004
 -19651818.45449 -15046359.43749  21002694.0774   21002695.8874   21002692.9304
       239.0004        200.0004
  -5667997.74649  -4382555.54549  23738445.0414   23738453.3614   23738446.8174
       218.0004        157.0004
   1841980.96649   1441032.30349  24739007.7874   24739016.3554   24739011.6944
       190.0004        127.0004
 -14938589.08149 -11140482.79749  21524471.7674   21524476.2744   21524471.7034
       235.0004        185.0004
  -7885171.63349  -6126810.59649  22543011.1054   22543018.9224   22543011.2764
       216.0004        159.0004
 -12214026.23149  -9254593.59549  22034495.9434   22034501.5144   22034495.9314
       230.0004        176.0004
 -10726675.39049  -8054250.91349  22739463.1544   22739468.3684   22739463.6784
       225.0004        170.0004
 11 10  9 12 24 30.0000000  0  9G06G18G21G31G05G16G03G30G29
 -10983212.52949  -8537833.45549  21883964.1774   21883969.3414   21883964.6144
       230.0004        179.0004
  -2210501.51349  -1272591.59249  24111492.7124   24111500.4664   24111490.8174
       210.0004        139.0004
 -19662047.68649 -15054330.25849  21000746.4684   21000749.8004   21000746.8494
       240.0004        200.0004
  -5565156.63049  -4302419.76049  23758015.1664   23758022.0064   23758016.1354
       212.0004        150.0004
   1903302.13149   1488815.02149  24750680.8874   24750687.9734   24750681.5594
       199.0004        132.0004
 -15003432.67249 -11191010.26849  21512133.0474   21512136.5734   21512132.8134
       235.0004        186.0004
  -7982160.99749  -6202386.65149  22524555.5814   22524561.9854   22524555.1964
       218.0004        158.0004
 -12115389.76849  -9177734.09349  22053265.9004   22053272.2834   22053265.4394
       231.0004        175.0004
 -10641367.76849  -7987777.51249  22755698.1764   22755702.1594   22755698.2794
       225.0004        170.0004
 11 10  9 12 25  0.0000000  0  9G06G18G21G31G05G16G03G30G29
 -11052917.50849  -8592148.97349  21870699.8314   21870704.8534   21870699.4804
       230.0004        178.0004
  -2298479.65949  -1341145.78449  24094752.1124   24094756.5704   24094752.6944
       213.0004        138.0004
 -19671811.43949 -15061938.35449  20998889.1424   20998891.1904   20998888.3234
       239.0004        200.0004
  -5462163.51349  -4222165.56249  23777612.5314   23777622.2004   23777613.2504
       209.0004        154.0004
   1965093.41049   1536964.04449  24762439.1554   24762447.5644   24762441.5204
       199.0004        134.0004
 -15067904.22349 -11241247.82549  21499865.0664   21499868.5594   21499864.5124
       235.0004        187.0004
  -8078967.06949  -6277819.90049  22506134.0194   22506140.5594   22506133.0744
       218.0004        157.0004
 -12016434.90449  -9100626.49049  22072095.7124   22072102.2774   22072095.4004
       229.0004        174.0004
 -10555908.82249  -7921186.20149  22771958.2464   22771964.4994   22771959.1914
       224.0004        167.0004
 11 10  9 12 25 30.0000000  0  9G06G18G21G31G05G16G03G30G29
 -11122375.86149  -8646272.33349  21857483.5964   21857487.6104   21857482.7334
       231.0004        179.0004
  -2386312.13249  -1409586.50449  24078036.4364   24078043.1974   24078035.0444
       208.0004        139.0004
 -19681109.71149 -15069183.74849  20997119.0504   20997122.1934   20997119.0394
       239.0004        200.0004
  -5359020.89349  -4141794.84549  23797242.2754   23797248.2044   23797244.1164
       216.0004        151.0004
   2027353.11649   1585478.06849  24774285.0524   24774290.6774   24774286.2434
       194.0004        129.0004
 -15132001.76349 -11291193.93349  21487666.8584   21487671.6544   21487667.3314
       236.0004        188.0004
  -8175588.25749  -6353109.08649  22487747.2634   22487754.9124   22487747.9934
       218.0004        161.0004
 -11917163.28449  -9023272.06049  22090986.8804   22090992.8014   22090987.3744
       229.0004        172.0004
 -10470299.40349  -7854477.64249  22788250.1634   22788256.4344   22788250.2614
       223.0004        167.0004
 11 10  9 12 26  0.0000000  0  9G06G18G21G31G05G16G03G30G29
 -11191587.23849  -8700203.23349  21844312.0454   21844317.1804   21844312.0124
       231.0004        179.0004
  -2473997.30549  -1477912.40949  24061350.2034   24061357.7584   24061350.4594
       210.0004        139.0004
 -19689942.92249 -15076066.75049  20995439.1364   20995441.1994   20995438.2364
       240.0004        200.0004
  -5255731.93349  -4061310.08649  23816895.5524   23816905.3024   23816896.5294
       208.0004        150.0004
   2090078.55649   1634354.97049  24786223.0054   24786223.3204   24786220.6964
       198.0004        126.0004
 -15195723.43549 -11340847.16649  21475542.1284   21475544.6914   21475541.6094
       236.0004        187.0004
  -8272023.50049  -6428253.33749  22469397.6304   22469403.9474   22469397.3504
       221.0004        161.0004
 -11817577.32149  -8945672.68249  22109939.2934   22109943.6434   22109938.4024
       233.0004        173.0004
 -10384540.69349  -7787652.75649  22804570.7224   22804575.7304   22804570.2124
       223.0004        168.0004
 11 10  9 12 26 30.0000000  0  9G06G18G21G31G05G16G03G30G29
 -11260551.06249  -8753941.23149  21831188.7034   21831193.5994   21831188.6684
       231.0004        178.0004
  -2561532.39349  -1546121.39349  24044693.2204   24044700.1974   24044693.1854
       209.0004        140.0004
 -19698311.48249 -15082587.69649  20993846.1554   20993848.3894   20993846.0574
       240.0004        200.0004
  -5152299.89349  -3980713.85549  23836580.8894   23836587.8714   23836579.2784
       214.0004        151.0004
   2153267.67449   1683593.19549  24798247.1854   24798252.7454   24798247.8994
       198.0004        129.0004
 -15259067.51649 -11390206.16949  21463488.0374   21463490.9944   21463487.9954
       237.0004        188.0004
  -8368271.73449  -6503251.89849  22451082.1574   22451088.1274   22451081.0024
       223.0004        162.0004
 -11717679.33749  -8867830.17249  22128947.9794   22128952.7224   22128947.1874
       229.0004        171.0004
 -10298634.14349  -7720712.65949  22820917.1564   22820922.9794   22820917.8624
       223.0004        167.0004
 11 10  9 12 27  0.0000000  0  9G06G18G21G31G05G16G03G30G29
 -11329266.09349  -8807485.36749  21818112.2334   21818117.0204   21818112.4524
       231.0004        179.0004
  -2648914.73549  -1614211.34349  24028064.3164   24028070.2124   24028063.8084
       209.0004        137.0004
 -19706215.43949 -15088746.60349  20992341.8954   20992344.4394   20992341.6274
       239.0004        200.0004
  -5048727.16449  -3900008.01849  23856290.9384   23856298.1114   23856290.7874
       219.0004        158.0004
   2216918.63949   1733191.30749  24810359.2314   24810364.7204   24810358.8184
       199.0004        131.0004
