     2.11           OBSERVATION DATA    G (GPS)             RINEX VERSION / TYPE
teqc  2013Mar15                         20160913 13:06:34UTCPGM / RUN BY / DATE
OSX ker:10.8.0|Core 2 Duo|gcc 4.2 -m64|OSX ker:10.8.0+|=+   COMMENT
Linux 2.4.21-27.ELsmp|Opteron|gcc -static|Linux x86_64|=+   COMMENT
HEADER CHANGED BY EPN CB ON 2011-10-10                      COMMENT
TO BE CONFORM WITH THE INFORMATION IN                       COMMENT
ftp://epncb.oma.be/pub/station/log/brus.log                 COMMENT
                                                            COMMENT
teqc  2010Oct21                         20111010 00:01:17UTCCOMMENT
teqc  2010Oct21                         20111010 00:01:02UTCCOMMENT
teqc  2010Oct21                         20111009 01:01:01UTCCOMMENT
BIT 2 OF LLI FLAGS DATA COLLECTED UNDER A/S CONDITION       COMMENT
 SNR is mapped to RINEX snr flag value [0-9]                COMMENT
  L1 & L2: min(max(int(snr_dBHz/6), 0), 9)                  COMMENT
pseudorange smoothing corrections not applied               COMMENT
COORDINATES IN ETRF2000                                     COMMENT
Forced Modulo Decimation to 30 seconds                      COMMENT
BRUS                                                        MARKER NAME
13101M004                                                   MARKER NUMBER
Carine Bruyninx     ROB                                     OBSERVER / AGENCY
RT919994505         ASHTECH Z-XII3T     1L01-1D04           REC # / TYPE / VERS
CR519994604         ASH701945B_M    NONE                    ANT # / TYPE
  4027894.0130   307045.5980  4919474.9120                  APPROX POSITION XYZ
        3.9702        0.0000        0.0000                  ANTENNA: DELTA H/E/N
     1     1                                                WAVELENGTH FACT L1/2
     7    L1    L2    C1    P2    P1    S1    S2            # / TYPES OF OBSERV
    30.0000                                                 INTERVAL
teqc windowed: start @ 2011 Oct  9 06:00:00.000             COMMENT
teqc windowed: delta = 21600.000 sec                        COMMENT
  2011    10     9     6     0    0.0000000     GPS         TIME OF FIRST OBS
                                                            END OF HEADER
 11 10  9  6  0  0.0000000  0  8G18G25G09G27G22G12G15G17
  -6992684.88949  -5430660.55249  23788405.7474   23788407.0854   23788405.9604
       213.0004        141.0004
  -4021149.82149  -3119067.56449  24080191.9344   24080196.9444   24080190.9034
       215.0004        149.0004
 -25944527.97149 -20202331.65249  19738474.6384   19738476.6934   19738474.3544
       245.0004        208.0004
 -10726219.56649  -8349768.34949  20883814.6824   20883817.5294   20883814.5754
       243.0004        200.0004
  -4961493.74649  -3690779.45849  23761567.0924   23761565.8824   23761566.6294
       214.0004        151.0004
 -17690542.39849 -13210167.78049  21364431.5374   21364433.3394   21364431.5734
       237.0004        190.0004
 -14081817.79449 -10959035.02349  22253906.4784   22253909.8344   22253906.4734
       233.0004        180.0004
  -8668004.28749  -6743238.58649  22531458.4854   22531460.9184   22531458.7044
       232.0004        176.0004
 11 10  9  6  0 30.0000000  0  8G18G25G09G27G22G12G15G17
  -6922809.41749  -5376212.16049  23801702.1774   23801703.6214   23801699.9954
       212.0004        140.0004
  -4125509.78649  -3200387.03349  24060331.6504   24060337.5654   24060332.0264
       214.0004        148.0004
 -25950124.30549 -20206692.45349  19737409.3424   19737411.6794   19737409.4124
       245.0004        208.0004
 -10701582.67549  -8330570.80349  20888503.0104   20888505.9274   20888503.0634
       243.0004        200.0004
  -4942318.69649  -3675837.86049  23765214.7514   23765215.9744   23765213.9584
       215.0004        151.0004
 -17762214.68149 -13266016.31849  21350792.2864   21350794.5514   21350793.2924
       237.0004        191.0004
 -13989316.68449 -10886956.30049  22271509.7944   22271512.6034   22271509.8384
       234.0004        180.0004
  -8633831.38749  -6716610.38249  22537961.7924   22537963.6854   22537961.2894
       231.0004        177.0004
 11 10  9  6  1  0.0000000  0  8G18G25G09G27G22G12G15G17
  -6852626.54449  -5321524.21949  23815059.6134   23815057.5794   23815055.7204
       210.0004        138.0004
  -4229725.38349  -3281594.01049  24040498.2094   24040504.9284   24040498.6674
       210.0004        147.0004
 -25955229.86449 -20210670.83549  19736438.2874   19736440.1784   19736438.1324
       245.0004        208.0004
 -10676653.50949  -8311145.50049  20893246.7854   20893249.5244   20893246.8694
       244.0004        200.0004
  -4922627.21649  -3660493.88549  23768963.9844   23768963.0534   23768963.0994
       217.0004        153.0004
 -17833506.10749 -13321568.08049  21337226.7414   21337228.3214   21337226.8654
       237.0004        191.0004
 -13896498.07049 -10814630.16649  22289173.6044   22289174.6614   22289172.5474
       234.0004        179.0004
  -8599108.61649  -6689553.68449  22544568.9554   22544571.7174   22544569.2624
       232.0004        177.0004
 11 10  9  6  1 30.0000000  0  8G18G25G09G27G22G12G15G17
  -6782137.80749  -5266597.99649  23828470.8864   23828471.6294   23828469.0014
       207.0004        138.0004
  -4333794.12449  -3362686.54049  24020698.0904   24020702.9094   24020696.1314
       213.0004        147.0004
 -25959843.07649 -20214265.55949  19735559.1664   19735562.3944   19735559.6354
       244.0004        208.0004
 -10651430.72049  -8291491.40049  20898046.1524   20898049.7794   20898046.2724
       243.0004        200.0004
  -4902419.31949  -3644747.47849  23772807.9854   23772809.5514   23772807.4954
       214.0004        153.0004
 -17904414.30549 -13376821.21249  21323733.3884   21323735.0894   21323732.9784
       238.0004        191.0004
 -13803362.82349 -10742057.29749  22306894.5454   22306897.6054   22306895.1544
       232.0004        178.0004
  -8563836.01049  -6662068.57549  22551280.9674   22551284.3194   22551282.0734
       233.0004        179.0004
 11 10  9  6  2  0.0000000  0  8G18G25G09G27G22G12G15G17
  -6711346.68849  -5211436.12349  23841939.7674   23841943.5274   23841940.0474
       206.0004        137.0004
  -4437715.11549  -3443663.92449  24000919.6034   24000925.8414   24000919.2854
       212.0004        148.0004
 -25963963.77749 -20217476.51649  19734776.4554   19734778.4094   19734775.8214
       245.0004        208.0004
 -10625914.64649  -8271608.77849  20902901.3914   20902905.0914   20902901.6904
       243.0004        200.0004
  -4881696.61749  -3628599.94849  23776752.9184   23776749.8554   23776751.5454
       217.0004        154.0004
 -17974938.85349 -13431775.41549  21310310.5844   21310314.9084   21310312.2664
       234.0004        191.0004
 -13709913.60149 -10669239.77749  22324678.5584   22324681.0294   22324678.2584
       233.0004        178.0004
  -8528014.97049  -6634156.11249  22558098.1804   22558100.3904   22558098.3474
       233.0004        178.0004
 11 10  9  6  2 30.0000000  0  9G18G25G09G27G22G14G12G15G17
  -6640255.77849  -5156040.62549  23855470.8044   23855473.7324   23855470.0504
       208.0004        136.0004
  -4541486.91249  -3524525.04649  23981174.0444   23981180.4404   23981173.9944
       216.0004        150.0004
 -25967591.31749 -20220303.19349  19734084.9554   19734088.2674   19734085.3044
       244.0004        208.0004
 -10600105.22149  -8251497.57049  20907813.5044   20907816.7244   20907813.4364
       244.0004        201.0004
  -4860460.05149  -3612052.00949  23780794.1494   23780793.5764   23780793.0374
       216.0004        154.0004
   -320028.64449   -226117.64749  24142650.3714   24142653.1034
       206.0004        137.0004
 -18045078.34949 -13486429.57349  21296965.5784   21296967.6574   21296965.9744
       238.0004        191.0004
 -13616152.51849 -10596179.25749  22342521.0064   22342523.5144   22342520.3874
       232.0004        179.0004
  -8491646.79349  -6605817.30449  22565018.0654   22565021.2884   22565018.0014
       230.0004        177.0004
 11 10  9  6  3  0.0000000  0  9G18G25G09G27G22G14G12G15G17
  -6568867.94749  -5100413.81849  23869054.7414   23869055.2584   23869052.9014
       209.0004        136.0004
  -4645108.40249  -3605269.08949  23961454.9434   23961462.0424   23961453.8144
       217.0004        150.0004
 -25970725.42749 -20222745.38549  19733489.5604   19733491.3864   19733489.4074
       245.0004        208.0004
 -10574002.45249  -8231157.78249  20912781.0304   20912783.8284   20912780.9284
       244.0004        201.0004
  -4838711.12049  -3595104.79149  23784932.0594   23784932.1174   23784931.2144
       216.0004        153.0004
   -420572.91649   -304463.85549  24123517.8894   24123520.8104   24123518.9314
       205.0004        136.0004
 -18114832.18749 -13540783.20249  21283692.5044   21283693.6014   21283691.9964
       237.0004        191.0004
 -13522081.90149 -10522877.53049  22360420.0374   22360424.4904   22360420.6784
       229.0004        178.0004
  -8454733.07949  -6577053.42449  22572042.1194   22572045.2254   22572042.2224
       229.0004        176.0004
 11 10  9  6  3 30.0000000  0  9G18G25G09G27G22G14G12G15G17
  -6497186.08649  -5044557.80949  23882693.5664   23882696.2324   23882693.9924
       212.0004        139.0004
  -4748578.24449  -3685894.95449  23941765.1984   23941770.8924   23941764.5664
       216.0004        149.0004
 -25973365.84349 -20224802.86549  19732986.1714   19732989.0394   19732986.3684
       244.0004        208.0004
 -10547606.29449  -8210589.36749  20917804.0854   20917807.2484   20917804.0624
       244.0004        201.0004
  -4816451.16249  -3577759.41549  23789167.5304   23789168.9054   23789167.4064
       214.0004        154.0004
   -520918.58949   -382655.33349  24104424.0364   24104424.6484   24104423.6404
       206.0004        136.0004
 -18184199.25549 -13594835.47349  21270491.2394   21270493.8884   21270491.8074
       236.0004        191.0004
 -13427704.08749 -10449336.44349  22378379.9684   22378383.9484   22378381.2004
       231.0004        177.0004
  -8417274.89549  -6547865.25949  22579170.9364   22579171.8714   22579171.3454
       232.0004        176.0004
 11 10  9  6  4  0.0000000  0  9G18G25G09G27G22G14G12G15G17
  -6425212.63249  -4988474.62849  23896392.5104   23896394.7054   23896392.1954
       209.0004        139.0004
  -4851894.51649  -3766401.17749  23922103.5554   23922110.4694   23922105.1874
       210.0004        147.0004
 -25975511.15949 -20226474.56749  19732578.5824   19732580.8634   19732578.5634
       244.0004        208.0004
 -10520916.11149  -8189791.85149  20922882.8114   20922885.9734   20922883.0134
       243.0004        201.0004
  -4793680.48349  -3560016.05249  23793502.9854   23793500.9694   23793500.1124
       217.0004        154.0004
   -621062.52549   -460689.56149  24085366.9214   24085368.5834   24085368.3014
       205.0004        139.0004
 -18253178.44249 -13648585.49649  21257365.8954   21257367.7664   21257365.7654
       237.0004        191.0004
 -13333020.77149 -10375557.29249  22396398.1734   22396401.5224   22396398.5514
       231.0004        178.0004
  -8379273.00649  -6518253.41349  22586403.0114   22586405.0234   22586401.9904
       231.0004        177.0004
 11 10  9  6  4 30.0000000  0  9G18G25G09G27G22G14G12G15G17
  -6352950.55349  -4932166.55849  23910140.8204   23910143.7244   23910141.6774
       206.0004        140.0004
  -4955056.57949  -3846787.19349  23902474.0464   23902479.4044   23902474.5054
       216.0004        147.0004
 -25977161.71349 -20227760.73049  19732264.2874   19732266.8914   19732264.1454
       245.0004        208.0004
 -10493932.30149  -8168765.53149  20928017.3554   20928020.5744   20928017.5874
       244.0004        200.0004
  -4770401.11049  -3541876.32049  23797931.6184   23797931.5824   23797930.0034
       215.0004        153.0004
   -721002.50949   -538564.86549  24066348.6824   24066350.5454   24066348.7624
       206.0004        143.0004
 -18321768.66949 -13702032.42049  21244314.2254   21244314.9394   21244313.6804
       238.0004        192.0004
 -13238034.61349 -10301542.17349  22414474.4244   22414477.2244   22414474.5174
       232.0004        178.0004
  -8340729.24449  -6488219.34649  22593736.3744   22593739.9234   22593737.9554
       230.0004        177.0004
 11 10  9  6  5  0.0000000  0  9G18G25G09G27G22G14G12G15G17
  -6280402.34549  -4875635.53649  23923949.0654   23923950.1234   23923947.8394
       208.0004        139.0004
  -5058062.85649  -3927051.83149  23882873.8034   23882879.1904   23882872.2034
       217.0004        151.0004
 -25978316.53449 -20228660.61249  19732044.7794   19732047.4474   19732044.6464
       245.0004        209.0004
 -10466654.64949  -8147510.24449  20933207.7414   20933211.1734   20933207.9254
       242.0004        200.0004
  -4746614.08149  -3523340.99249  23802457.2934   23802456.9454   23802456.3174
       214.0004        150.0004
   -820736.11349   -616279.37449  24047368.8044   24047372.5964   24047370.5164
       205.0004        142.0004
 -18389969.03449 -13755175.55649  21231334.8914   21231336.9404   21231334.7624
       236.0004        192.0004
 -13142747.67949 -10227292.66449  22432606.7764   22432609.4444   22432607.6254
       231.0004        178.0004
  -8301644.71849  -6457763.89649  22601174.8974   22601177.0714   22601173.8454
       230.0004        177.0004
 11 10  9  6  5 30.0000000  0  9G18G25G09G27G22G14G12G15G17
  -6207571.56549  -4818884.34149  23937807.4504   23937810.1544   23937807.3804
       207.0004        142.0004
  -5160912.50149  -4007194.42849  23863301.6074   23863307.6794   23863303.1204
       218.0004        153.0004
 -25978975.82249 -20229174.36649  19731919.5684   19731921.9984   19731919.2844
       246.0004        209.0004
 -10439083.70149  -8126026.41849  20938454.7414   20938457.9564   20938454.8224
       243.0004        200.0004
  -4722321.17449  -3504411.46549  23807080.4244   23807079.6174   23807079.2014
       216.0004        151.0004
   -920261.25749   -693831.44049  24028430.3734   24028431.7184   24028430.6394
       203.0004        139.0004
 -18457778.79749 -13808014.33549  21218430.0864   21218433.4274   21218430.7854
       235.0004        191.0004
 -13047162.87249 -10152811.06149  22450794.6364   22450797.8644   22450795.8274
       231.0004        178.0004
  -8262021.74749  -6426888.88949  22608714.3164   22608718.4484   22608715.7024
       230.0004        178.0004
 11 10  9  6  6  0.0000000  0  9G18G25G09G27G22G14G12G15G17
  -6134460.43249  -4761914.65649  23951720.7564   23951723.8114   23951719.6624
       211.0004        138.0004
  -5263603.75249  -4087213.60749  23843760.9374   23843765.7634   23843760.8714
       218.0004        154.0004
 -25979138.71549 -20229301.31949  19731887.8894   19731890.8384   19731887.9994
       244.0004        208.0004
 -10411218.87549  -8104313.60549  20943757.6354   20943760.7134   20943757.4294
       243.0004        200.0004
  -4697523.43449  -3485088.59549  23811798.8174   23811798.1994   23811797.5344
       214.0004        150.0004
  -1019574.97249   -771218.75149  24009532.0344   24009534.6074   24009532.0594
       204.0004        139.0004
 -18525196.98749 -13860547.98949  21205602.4884   21205604.3994   21205602.2984
       237.0004        192.0004
 -12951281.87049 -10078098.64649  22469042.1984   22469043.9754   22469042.3154
       232.0004        178.0004
  -8221860.89149  -6395594.74749  22616357.4094   22616359.1544   22616357.3034
       231.0004        178.0004
 11 10  9  6  6 30.0000000  0  9G18G25G09G27G22G14G12G15G17
  -6061072.32949  -4704729.16049  23965686.5404   23965688.1934   23965686.1264
       210.0004        140.0004
  -5366135.67049  -4167108.59949  23824250.1594   23824255.0694   23824250.4394
       220.0004        154.0004
 -25978805.20449 -20229041.45949  19731951.3384   19731954.4854   19731951.4814
       245.0004        208.0004
 -10383060.28949  -8082371.87849  20949116.0034   20949119.0574   20949116.0454
       243.0004        200.0004
  -4672222.27449  -3465373.42549  23816612.3424   23816612.8654   23816611.1164
       211.0004        148.0004
  -1118674.87049   -848439.48649  23990676.2824   23990677.4564   23990674.8624
       210.0004        139.0004
 -18592222.99749 -13912776.05249  21192847.9204   21192849.4174   21192847.9994
       237.0004        192.0004
 -12855107.16649 -10003157.39249  22487343.9654   22487345.5924   22487343.6934
       232.0004        177.0004
  -8181163.76549  -6363882.74449  22624100.6504   22624104.2804   22624102.2724
       230.0004        177.0004
 11 10  9  6  7  0.0000000  0  9G18G25G09G27G22G14G12G15G17
  -5987409.38149  -4647329.48049  23979703.7214   23979706.9804   23979703.9584
       212.0004        143.0004
  -5468506.44449  -4246878.02249  23804766.5104   23804774.3404   23804766.7704
       214.0004        150.0004
 -25977974.21449 -20228393.95349  19732109.9504   19732112.4994   19732109.7184
       245.0004        208.0004
 -10354607.25449  -8060200.71849  20954529.7284   20954533.6004   20954529.9414
       242.0004        200.0004
  -4646418.80049  -3445266.84549  23821523.1914   23821523.6644   23821521.6134
       213.0004        148.0004
  -1217558.28649   -925491.55849  23971858.0794   23971858.7214   23971856.8314
       209.0004        141.0004
 -18658855.21149 -13964697.26049  21180167.1224   21180169.4414   21180167.6144
       236.0004        192.0004
 -12758640.69749  -9927988.76149  22505699.0764   22505702.1724   22505699.9054
       229.0004        177.0004
  -8139931.26549  -6331753.53449  22631949.4724   22631949.7294   22631948.3554
       232.0004        177.0004
 11 10  9  6  7 30.0000000  0  9G18G25G09G27G22G14G12G15G17
  -5913474.83549  -4589718.16849  23993771.9224   23993775.4574   23993771.5224
       210.0004        142.0004
  -5570715.10749  -4326521.15049  23785316.7054   23785325.7354   23785317.3884
       213.0004        149.0004
 -25976645.71049 -20227358.78449  19732362.9124   19732365.0094   19732363.1154
       246.0004        208.0004
 -10325860.29749  -8037800.52449  20960000.7404   20960003.7774   20960000.7044
       243.0004        200.0004
  -4620114.29849  -3424769.86049  23826529.2354   23826528.4684   23826528.2514
       214.0004        150.0004
  -1316222.86049  -1002373.07749  23953082.0794   23953084.3744   23953082.3384
       211.0004        143.0004
 -18725093.08349 -14016311.18949  21167562.5634   21167564.9174   21167563.0824
       237.0004        193.0004
 -12661885.07449  -9852594.83249  22524110.4834   22524115.0844   22524111.8594
       231.0004        176.0004
  -8098164.80449  -6299208.28249  22639895.6454   22639898.6904   22639895.8764
       230.0004        176.0004
 11 10  9  6  8  0.0000000  0  9G18G25G09G27G22G14G12G15G17
  -5839271.47249  -4531897.41449  24007892.2674   24007895.9894   24007894.0014
       210.0004        139.0004
  -5672760.33449  -4406036.92949  23765899.8864   23765906.0854   23765899.2214
       219.0004        151.0004
 -25974819.00049 -20225935.39749  19732710.5064   19732713.1994   19732710.0584
       244.0004        208.0004
 -10296819.35049  -8015171.24249  20965526.7164   20965530.0484   20965527.2284
       243.0004        199.0004
  -4593310.49049  -3403883.80049  23831630.1164   23831628.3034   23831628.7174
       214.0004        147.0004
  -1414666.04149  -1079082.05949  23934350.3784   23934351.8224   23934349.4084
       209.0004        143.0004
 -18790935.61149 -14067617.05649  21155033.4274   21155036.3004   21155033.6434
       237.0004        193.0004
 -12564842.49849  -9776977.32349  22542579.5354   22542581.5514   22542579.1904
       232.0004        176.0004
  -8055866.64549  -6266248.71649  22647944.6154   22647947.3684   22647944.8324
       230.0004        176.0004
 11 10  9  6  8 30.0000000  0  9G18G25G09G27G22G14G12G15G17
  -5764802.26349  -4473869.50549  24022064.7644   24022066.0514   24022063.0864
       207.0004        137.0004
  -5774640.86049  -4485424.37849  23746513.7614   23746519.2124   23746512.6404
       220.0004        154.0004
 -25972493.99149 -20224123.71749  19733152.3744   19733155.2544   19733152.5554
       245.0004        208.0004
 -10267484.30549  -7992312.78349  20971109.5164   20971112.9444   20971109.3844
       243.0004        200.0004
  -4566008.66849  -3382609.68349  23836823.7864   23836823.8214   23836823.9044
       209.0004        144.0004
  -1512885.41149  -1155616.64549  23915658.7114   23915661.0864   23915658.4294
       206.0004        140.0004
 -18856382.35349 -14118614.52149  21142578.9254   21142581.9434   21142579.7144
       237.0004        193.0004
 -12467515.26649  -9701137.95849  22561099.2624   22561102.4804   22561099.9234
       230.0004        174.0004
  -8013037.99249  -6232875.75349  22656094.7434   22656097.4644   22656095.4424
       229.0004        175.0004
 11 10  9  6  9  0.0000000  0  9G18G25G09G27G22G14G12G15G17
  -5690070.43049  -4415636.92149  24036287.9084   24036289.0094   24036285.6304
       210.0004        138.0004
  -5876355.71349  -4564682.70349  23727157.7174   23727162.8044   23727156.5524
       217.0004        155.0004
 -25969670.64249 -20221923.72349  19733689.3844   19733692.4954   19733689.3014
       243.0004        208.0004
 -10237855.45649  -7969225.40749  20976746.8704   20976750.8394   20976747.2124
       242.0004        199.0004
  -4538210.56149  -3360948.85449  23842115.4014   23842114.1194   23842113.7444
       214.0004        150.0004
  -1610878.65149  -1231974.99349  23897012.4504   23897014.8054   23897010.6494
       209.0004        141.0004
 -18921431.82349 -14169302.42549  21130201.1924   21130203.2464   21130201.7654
       238.0004        194.0004
 -12369905.83749  -9625078.73949  22579673.2904   22579677.0304   22579673.5164
       228.0004        175.0004
  -7969680.55349  -6199090.78449  22664344.9534   22664348.1614   22664345.4884
       228.0004        176.0004
 11 10  9  6  9 30.0000000  0  9G18G25G09G27G22G14G12G15G17
  -5615077.75249  -4357201.11749  24050554.2014   24050557.6544   24050555.4084
       204.0004        138.0004
  -5977903.05749  -4643810.50149  23707832.4274   23707838.7654   23707834.0764
       215.0004        152.0004
 -25966347.97349 -20219334.65149  19734322.3894   19734325.4404   19734322.4684
       246.0004        209.0004
 -10207931.97549  -7945908.44049  20982441.9934   20982445.0034   20982441.8584
       244.0004        199.0004
  -4509917.18349  -3338902.12749  23847499.5824   23847498.9134   23847499.0524
       215.0004        153.0004
  -1708642.82149  -1308154.88649  23878406.8204   23878409.1514   23878408.1794
       209.0004        142.0004
 -18986083.24749 -14219680.15649  21117897.9214   21117900.5324   21117897.9904
       238.0004        193.0004
 -12272016.23849  -9548801.20749  22598301.2624   22598304.6854   22598301.6354
       229.0004        174.0004
  -7925795.21949  -6164894.45149  22672696.3054   22672698.2824   22672697.0794
       227.0004        175.0004
 11 10  9  6 10  0.0000000  0  9G18G25G09G27G22G14G12G15G17
  -5539827.64149  -4298564.72249  24064875.0454   24064877.8924   24064874.5404
       210.0004        139.0004
  -6079281.80649  -4722806.91249  23688540.1664   23688547.8604   23688541.4544
       215.0004        152.0004
 -25962525.60049 -20216356.20049  19735049.8924   19735052.1144   19735049.7814
       244.0004        208.0004
 -10177714.20649  -7922362.14649  20988193.0684   20988195.0494   20988192.4964
       244.0004        200.0004
  -4481130.05749  -3316470.61949  23852976.8294   23852977.3394   23852976.7064
       215.0004        153.0004
  -1806175.31949  -1384154.29149  23859847.7324   23859850.2804   23859847.4164
       211.0004        144.0004
 -19050335.89849 -14269747.15249  21105671.2684   21105673.7094   21105672.0744
       238.0004        194.0004
 -12173848.83149  -9472307.17749  22616980.9914   22616984.7804   22616981.8494
       227.0004        171.0004
  -7881383.72949  -6130288.12649  22681148.1444   22681150.5284   22681148.3094
       229.0004        177.0004
 11 10  9  6 10 30.0000000  0  9G18G25G09G27G22G14G12G15G17
  -5464322.90649  -4239729.92049  24079244.6804   24079245.7504   24079243.5224
       208.0004        139.0004
  -6180490.75649  -4801671.03649  23669281.9614   23669287.1944   23669281.5744
       216.0004        152.0004
 -25958203.32549 -20212988.21349  19735872.1974   19735874.7514   19735872.5334
       245.0004        208.0004
 -10147202.28449  -7898586.63849  20993998.5584   20994001.4794   20993998.7404
       243.0004        199.0004
  -4451851.07849  -3293655.86049  23858550.2574   23858549.3414   23858549.3614
       215.0004        153.0004
  -1903473.76549  -1459971.31049  23841334.3964   23841335.0824   23841332.7954
       213.0004        143.0004
 -19114188.72249 -14319502.59649  21093521.7404   21093522.7774   21093520.9084
       240.0004        194.0004
 -12075405.98349  -9395598.53449  22635716.5014   22635718.5564   22635715.3854
       229.0004        173.0004
  -7836447.38849  -6095272.82449  22689698.3394   22689702.1394   22689698.8864
       229.0004        176.0004
 11 10  9  6 11  0.0000000  0  9G18G25G09G27G22G14G12G15G17
  -5388566.79649  -4180699.21749  24093660.2064   24093662.1744   24093658.0134
       207.0004        136.0004
  -6281528.76849  -4880401.99549  23650054.9124   23650061.5154   23650054.5544
       217.0004        152.0004
 -25953381.22849 -20209230.75149  19736789.9894   19736792.3404   19736789.7044
       244.0004        208.0004
 -10116396.37549  -7874582.06549  20999860.4064   20999863.4704   20999860.8034
       243.0004        199.0004
  -4422081.63649  -3270458.92049  23864213.3514   23864214.8464   23864213.2114
       215.0004        153.0004
  -2000535.83849  -1535604.08149  23822862.7154   23822864.5704   23822862.0054
       210.0004        144.0004
 -19177641.32349 -14368946.18949  21081445.7924   21081448.1554   21081446.5264
       238.0004        194.0004
 -11976690.01849  -9318677.07449  22654501.1694   22654503.9684   22654501.5564
       227.0004        174.0004
  -7790988.34549  -6059850.24049  22698350.0314   22698352.5724   22698350.5224
       230.0004        177.0004
 11 10  9  6 11 30.0000000  0  9G18G25G09G27G22G14G12G15G17
  -5312562.07649  -4121474.78649  24108120.8494   24108123.3424   24108122.9934
       205.0004        135.0004
  -6382394.60549  -4958998.76249  23630863.7164   23630867.2234   23630861.3544
       219.0004        154.0004
 -25948058.92949 -20205083.52349  19737802.2764   19737805.0884   19737802.7534
       245.0004        208.0004
 -10085296.36749  -7850348.33049  21005778.3974   21005782.0354   21005778.4524
       242.0004        199.0004
  -4391823.64049  -3246881.28549  23869971.9664   23869971.6994   23869970.8654
       214.0004        153.0004
  -2097358.93849  -1611050.66149  23804438.4404   23804438.9714   23804436.6664
       213.0004        146.0004
 -19240692.84049 -14418077.24349  21069448.4714   21069449.4404   21069448.4034
       240.0004        194.0004
 -11877703.29449  -9241544.63049  22673334.8134   22673339.3604   22673336.8494
       224.0004        172.0004
  -7745008.07749  -6024021.47749  22707099.3274   22707102.0944   22707098.6084
       228.0004        176.0004
 11 10  9  6 12  0.0000000  0  9G18G25G09G27G22G14G12G15G17
  -5236311.26349  -4062058.61249  24122632.0604   24122634.0374   24122629.8654
       205.0004        134.0004
  -6483086.70849  -5037460.12549  23611700.8644   23611707.0144   23611699.9504
       216.0004        153.0004
 -25942235.94049 -20200546.14949  19738911.1654   19738913.2844   19738910.9094
       244.0004        208.0004
 -10053901.55749  -7825884.87749  21011753.3994   21011756.5104   21011752.9964
       242.0004        199.0004
  -4361077.50249  -3222923.28649  23875822.8704   23875823.4244   23875822.6614
       213.0004        154.0004
  -2193940.37149  -1686308.91349  23786058.8554   23786060.2894   23786058.4884
       212.0004        149.0004
 -19303342.13049 -14466894.87249  21057526.6854   21057527.8574   21057526.3214
       240.0004        195.0004
 -11778447.94149  -9164202.85149  22692224.0794   22692227.6404   22692225.6484
       227.0004        172.0004
  -7698507.79349  -5987787.53749  22715947.5504   22715950.4304   22715948.8444
       228.0004        175.0004
 11 10  9  6 12 30.0000000  0  9G18G25G09G27G22G14G12G15G17
  -5159817.60249  -4002453.19749  24137189.3174   24137189.0084   24137187.4164
       204.0004        133.0004
  -6583603.92949  -5115785.22149  23592573.5444   23592577.4984   23592571.6644
       218.0004        156.0004
 -25935912.12649 -20195618.52549  19740114.0814   19740116.9184   19740114.2964
       244.0004        208.0004
 -10022212.45449  -7801192.09749  21017783.2074   21017786.5724   21017782.9814
       242.0004        199.0004
  -4329845.47849  -3198586.68149  23881763.8604   23881766.6474   23881763.2274
       210.0004        153.0004
  -2290277.61249  -1761376.91149  23767725.9894   23767728.7654   23767726.0174
       215.0004        148.0004
 -19365588.72249 -14515398.71449  21045682.2954   21045682.7284   21045681.9664
       241.0004        195.0004
 -11678926.43749  -9086653.68549  22711165.0264   22711166.5334   22711162.5584
       228.0004        171.0004
  -7651489.43449  -5951149.90049  22724896.6864   22724897.7304   22724896.1684
       229.0004        175.0004
 11 10  9  6 13  0.0000000  0  9G18G25G09G27G22G14G12G15G17
  -5083084.07349  -3942660.88549  24151793.2864   24151794.1334   24151790.7794
       204.0004        134.0004
  -6683945.31849  -5193973.31149  23573478.6394   23573483.8084   23573478.0674
       222.0004        158.0004
 -25929087.34049 -20190300.52449  19741412.3404   19741415.7744   19741412.4644
       243.0004        208.0004
  -9990229.31349  -7776270.20049  21023869.5014   21023872.6324   21023869.3724
       242.0004        199.0004
  -4298129.64549  -3173873.08549  23887800.1974   23887801.9334   23887801.0304
       212.0004        152.0004
  -2386368.39849  -1836252.91149  23749442.1404   23749442.5744   23749439.8934
       213.0004        145.0004
 -19427431.51449 -14563587.89949  21033912.7104   21033914.5414   21033912.9914
       240.0004        195.0004
 -11579141.28449  -9008899.10649  22730152.4464   22730155.3824   22730152.2214
       226.0004        172.0004
  -7603954.20249  -5914109.49649  22733941.1144   22733944.0824   22733941.4244
       228.0004        176.0004
 11 10  9  6 13 30.0000000  0  9G18G25G09G27G22G14G12G15G17
  -5006113.10049  -3882683.51649  24166437.3474   24166439.7234   24166437.5464
       203.0004        131.0004
  -6784109.12349  -5272023.05649  23554418.1054   23554423.0184   23554418.0064
       220.0004        156.0004
 -25921761.03749 -20184591.74049  19742806.9094   19742809.4614   19742806.5434
       244.0004        208.0004
  -9957951.53849  -7751118.71249  21030011.6764   21030014.6504   21030011.8194
       243.0004        199.0004
  -4265930.88549  -3148783.15249  23893927.0794   23893929.2324   23893928.0634
       207.0004        153.0004
  -2482209.60149  -1910934.37849  23731202.7504   23731203.8584   23731201.7154
       209.0004        143.0004
 -19488869.63449 -14611461.77149  21022220.2584   21022223.0194   21022221.5794
       238.0004        195.0004
 -11479094.50649  -8930940.65749  22749187.6224   22749192.8604   22749190.0694
       224.0004        171.0004
  -7555904.20049  -5876667.97449  22743084.4324   22743087.8084   22743085.1144
       227.0004        174.0004
 11 10  9  6 14  0.0000000  0  9G18G25G09G27G22G14G12G15G17
  -4928907.92749  -3822523.70949  24181132.4154   24181130.8064   24181131.1224
       207.0004        135.0004
  -6884094.64349  -5349933.85249  23535390.4444   23535396.5914   23535389.8834
       218.0004        154.0004
 -25913932.98449 -20178491.97349  19744296.1454   19744299.4634   19744296.3444
       244.0004        208.0004
  -9925379.53949  -7725737.95249  21036210.5764   21036213.1074   21036210.0164
       242.0004        199.0004
  -4233251.29449  -3123318.55249  23900144.3674   23900147.6594   23900145.3524
       208.0004        149.0004
  -2577799.21149  -1985419.78349  23713010.4354   23713014.5844   23713011.4674
       211.0004        143.0004
 -19549902.70949 -14659020.00949  21010607.9764   21010609.2204   21010607.9964
       240.0004        195.0004
 -11378789.04349  -8852780.59749  22768277.1744   22768280.3204   22768277.3464
       226.0004        170.0004
  -7507341.12149  -5838826.64849  22752326.3574   22752329.4504   22752326.4384
       228.0004        175.0004
 11 10  9  6 14 30.0000000  0  9G18G25G09G27G22G14G12G15G17
  -4851470.94149  -3762183.23049  24195866.5584   24195869.1624   24195866.7164
       207.0004        138.0004
  -6983899.99149  -5427704.28149  23516399.3754   23516403.1354   23516398.5994
       218.0004        155.0004
 -25905602.34149 -20172000.59349  19745882.1464   19745884.6114   19745882.4864
       245.0004        208.0004
  -9892512.75049  -7700127.50549  21042463.8914   21042468.0644   21042464.1034
       242.0004        199.0004
  -4200092.07749  -3097480.25549  23906456.9364   23906458.5224   23906457.2404
       212.0004        151.0004
  -2673134.08649  -2059706.74249  23694871.3004   23694872.9314   23694871.1614
       215.0004        147.0004
 -19610529.43749 -14706261.63549  20999070.5214   20999072.1774   20999070.3044
       239.0004        195.0004
 -11278226.37449  -8774420.15549  22787415.4704   22787418.1504   22787414.2364
       230.0004        171.0004
  -7458266.25449  -5800586.53849  22761664.8574   22761667.8964   22761664.7204
       228.0004        175.0004
 11 10  9  6 15  0.0000000  0  9G18G25G09G27G22G14G12G15G17
  -4773805.46249  -3701664.71249  24210643.0924   24210645.8904   24210643.5814
       206.0004        137.0004
  -7083524.43449  -5505333.71949  23497440.3034   23497446.4594   23497441.5034
       221.0004        159.0004
 -25896769.57549 -20165117.93549  19747563.0214   19747565.4954   19747563.0004
       244.0004        207.0004
  -9859351.56649  -7674287.65049  21048774.9494   21048777.7004   21048775.0704
       242.0004        199.0004
  -4166455.30149  -3071269.80449  23912854.3144   23912858.7764   23912855.1874
       206.0004        148.0004
  -2768212.20549  -2133793.61649  23676777.4214   23676780.6584   23676778.0564
       211.0004        150.0004
 -19670749.34849 -14753186.23549  20987610.8214   20987612.3634   20987611.3314
       240.0004        196.0004
 -11177409.55249  -8695861.67849  22806599.7924   22806603.1004   22806599.9434
       229.0004        173.0004
  -7408681.49049  -5761949.09549  22771101.0384   22771102.7874   22771100.7554
       229.0004        175.0004
 11 10  9  6 15 30.0000000  0  9G18G25G09G27G22G14G12G15G17
  -4695914.85249  -3640970.76249  24225466.5854   24225469.4604   24225465.6064
       207.0004        137.0004
  -7182966.60749  -5582821.13449  23478519.6944   23478523.4804   23478517.4604
       224.0004        162.0004
 -25887434.16049 -20157843.60949  19749339.6094   19749341.9774   19749339.3184
       244.0004        208.0004
  -9825895.91849  -7648218.33949  21055140.6994   21055144.0074   21055140.7524
       241.0004        198.0004
  -4132342.35949  -3044688.27849  23919348.1314   23919350.9234   23919347.6794
       208.0004        149.0004
  -2863030.80749  -2207678.24949  23658735.6454   23658737.5104   23658734.7724
       211.0004        147.0004
 -19730561.62049 -14799793.20749  20976229.1754   20976231.2494   20976229.3864
       240.0004        196.0004
 -11076340.44049  -8617106.59249  22825832.6324   22825834.3964   22825833.2254
       228.0004        171.0004
  -7358588.26849  -5722915.46649  22780633.0864   22780635.7734   22780632.9564
       229.0004        174.0004
 11 10  9  6 16  0.0000000  0  9G18G25G09G27G22G14G12G15G17
  -4617801.54049  -3580103.33249  24240331.2874   24240334.6254   24240332.4294
       203.0004        136.0004
  -7282225.25949  -5660165.53949  23459628.1384   23459635.1084   23459629.9674
       221.0004        160.0004
 -25877596.11049 -20150177.61149  19751211.1004   19751213.8694   19751211.1184
       244.0004        207.0004
  -9792145.78949  -7621919.55849  21061563.7324   21061566.5274   21061563.3284
       242.0004        199.0004
  -4097755.16749  -3017737.27249  23925929.0084   23925932.0334   23925928.4884
       212.0004        150.0004
  -2957587.47249  -2281358.77149  23640740.6034   23640743.8804   23640740.1654
       208.0004        145.0004
 -19789965.71449 -14846082.09949  20964924.5914   20964926.9584   20964924.8764
       240.0004        196.0004
 -10975021.95349  -8538157.17149  22845109.3404   22845114.3114   22845111.8894
       223.0004        168.0004
  -7307988.92349  -5683487.45649  22790261.3984   22790263.9144   22790261.8634
       228.0004        175.0004
 11 10  9  6 16 30.0000000  0  9G18G25G09G27G22G14G12G15G17
  -4539468.39849  -3519064.56349  24255236.2664   24255241.5364   24255237.1834
       200.0004        135.0004
  -7381299.10749  -5737365.96149  23440775.6034   23440781.9884   23440776.2164
       219.0004        158.0004
 -25867255.13749 -20142119.73649  19753179.2434   19753181.8744   19753178.9384
       244.0004        208.0004
  -9758100.98849  -7595391.16949  21068042.5214   21068045.1084   21068042.4614
       243.0004        199.0004
  -4062695.33149  -2990417.95649  23932604.4984   23932603.6874   23932603.0984
       211.0004        151.0004
  -3051879.41549  -2354833.03449  23622797.0524   23622800.5674   23622796.4994
       207.0004        143.0004
 -19848960.92049 -14892052.39549  20953698.8744   20953700.6664   20953698.6854
       241.0004        197.0004
 -10873455.91549  -8459014.87149  22864437.4004   22864443.0154   22864439.5974
       226.0004        172.0004
  -7256884.81249  -5643666.10049  22799986.3864   22799989.7254   22799986.4124
       228.0004        175.0004
 11 10  9  6 17  0.0000000  0  9G18G25G09G27G22G14G12G15G17
  -4460917.83249  -3457856.36149  24270183.7624   24270186.0864   24270185.0264
       203.0004        134.0004
  -7480186.55749  -5814421.12849  23421958.8854   23421963.5244   23421958.4664
       222.0004        156.0004
 -25856410.64449 -20133669.49949  19755242.6764   19755245.6934   19755242.3764
       244.0004        207.0004
  -9723761.29049  -7568632.99149  21074577.3854   21074580.3384   21074577.4444
       243.0004        199.0004
  -4027164.17349  -2962731.36149  23939362.4784   23939364.5034   23939362.1124
       207.0004        148.0004
  -3145903.57349  -2428098.63749  23604905.7624   23604907.9174   23604905.7804
       209.0004        146.0004
 -19907545.72849 -14937702.90049  20942550.0204   20942552.6184   20942550.1624
       241.0004        197.0004
 -10771644.35149  -8379681.26049  22883815.0504   22883817.7514   22883814.0834
       228.0004        173.0004
  -7205277.12949  -5603452.36549  22809806.6044   22809810.5124   22809807.3864
       228.0004        173.0004
 11 10  9  6 17 30.0000000  0  9G18G25G09G27G22G14G12G15G17
  -4382153.72949  -3396481.79649  24285173.1024   24285174.7734   24285172.1974
       206.0004        132.0004
  -7578887.22749  -5891330.76249  23403177.4674   23403182.6194   23403178.3464
       223.0004        161.0004
 -25845063.44949 -20124827.55649  19757402.5194   19757405.1054   19757402.6414
       245.0004        208.0004
  -9689127.72349  -7541645.82049  21081167.4374   21081170.7834   21081167.4904
       242.0004        199.0004
  -3991164.59549  -2934679.75849  23946212.9894   23946215.1914   23946212.7744
       209.0004        148.0004
  -3239658.67149  -2501154.57749  23587064.9944   23587068.3364   23587065.2494
       210.0004        148.0004
 -19965720.73749 -14983034.08149  20931479.3204   20931481.4984   20931479.7234
       240.0004        197.0004
 -10669590.67149  -8300158.99349  22903235.5944   22903237.0484   22903235.0764
       227.0004        167.0004
  -7153168.66949  -5562848.41749  22819723.4074   22819726.0404   22819723.4054
       229.0004        174.0004
 11 10  9  6 18  0.0000000  0  9G18G25G09G27G22G14G12G15G17
  -4303178.14349  -3334942.42949  24300205.0624   24300204.3834   24300204.3294
       204.0004        130.0004
  -7677399.11349  -5968093.25949  23384431.6174   23384438.0134   23384430.8124
       224.0004        163.0004
 -25833212.44549 -20115593.02849  19759657.2834   19759660.3454   19759657.2414
       244.0004        208.0004
  -9654199.36849  -7514428.94649  21087814.1594   21087817.5614   21087813.5964
       241.0004        198.0004
  -3954697.23449  -2906263.69549  23953153.2734   23953154.2654   23953153.4144
       209.0004        149.0004
  -3333141.10349  -2573998.03449  23569274.7194   23569279.0994   23569275.1414
       210.0004        147.0004
 -20023484.17049 -15028044.56449  20920487.6394   20920489.4614   20920488.2774
       242.0004        197.0004
 -10567296.56149  -8220449.35849  22922699.5564   22922703.6424   22922700.8494
       225.0004        169.0004
  -7100560.47349  -5521855.03249  22829733.1894   22829737.0084   22829733.4394
       228.0004        173.0004
 11 10  9  6 18 30.0000000  0  9G18G25G09G27G22G14G12G15G17
  -4223994.62049  -3273241.01849  24315268.3444   24315272.0374   24315267.9624
       198.0004        130.0004
  -7775721.29149  -6044707.95349  23365720.3594   23365726.5814   23365720.8154
       222.0004        161.0004
 -25820857.70149 -20105965.98049  19762008.3274   19762011.1654   19762008.4314
       244.0004        208.0004
  -9618976.49849  -7486982.58249  21094516.8074   21094520.2394   21094516.6614
       241.0004        199.0004
  -3917764.21749  -2877484.74749  23960181.8544   23960183.1554   23960181.7634
       211.0004        149.0004
  -3426348.41749  -2646627.12849  23551537.2084   23551541.4664   23551537.4404
       207.0004        145.0004
 -20080835.93449 -15072734.25049  20909574.6204   20909575.6934   20909574.0884
       241.0004        197.0004
 -10464764.45749  -8140554.27549  22942210.6024   22942214.8384   22942211.1004
       225.0004        173.0004
  -7047454.52449  -5480473.82349  22839839.3674   22839842.7294   22839840.1394
       230.0004        175.0004
 11 10  9  6 19  0.0000000  0  9G18G25G09G27G22G14G12G15G17
  -4144605.89949  -3211379.70349  24330376.0114   24330379.2724   24330374.4744
       203.0004        131.0004
  -7873852.71049  -6121174.00049  23347046.9524   23347051.0374   23347046.0214
       220.0004        159.0004
 -25807999.33949 -20095946.50349  19764455.2264   19764458.0924   19764454.9884
       244.0004        207.0004
  -9583459.17749  -7459306.77349  21101275.7594   21101278.9964   21101275.5604
       242.0004        199.0004
  -3880367.41349  -2848344.41849  23967299.1344   23967299.3234   23967298.4524
       210.0004        147.0004
  -3519278.34049  -2719040.06849  23533854.7264   23533856.3334   23533853.8244
       211.0004        147.0004
 -20137775.19549 -15117102.52049  20898738.5654   20898741.0344   20898739.2664
       241.0004        198.0004
 -10361996.84449  -8060475.69949  22961766.9094   22961771.6274   22961767.2394
       223.0004        169.0004
  -6993852.73349  -5438706.22849  22850041.0714   22850042.6024   22850040.0584
       231.0004        174.0004
 11 10  9  6 19 30.0000000  0  9G18G25G09G27G22G14G12G15G17
  -4065014.86049  -3149360.76449  24345522.8294   24345524.6254   24345521.9974
       206.0004        133.0004
  -7971791.96549  -6197490.31249  23328408.2214   23328415.4654   23328409.2034
       220.0004        158.0004
 -25794636.96149 -20085534.28449  19766998.1884   19767000.7224   19766997.9414
       244.0004        207.0004
  -9547647.29649  -7431401.44649  21108090.5464   21108093.4134   21108090.3144
       242.0004        198.0004
  -3842508.95849  -2818844.35249  23974502.9194   23974499.8494   23974502.1714
       210.0004        144.0004
  -3611927.98449  -2791234.65249  23516224.2084   23516227.0104   23516225.3784
       211.0004        148.0004
 -20194300.95349 -15161148.57849  20887983.0594   20887984.5344   20887982.8074
       242.0004        198.0004
 -10258996.09949  -7980215.45749  22981368.3524   22981370.3864   22981368.5104
       226.0004        168.0004
  -6939756.95349  -5396553.72649  22860333.1634   22860337.5324   22860333.7904
       228.0004        174.0004
 11 10  9  6 20  0.0000000  0  9G18G25G09G27G22G14G12G15G17
  -3985224.25249  -3087186.30149  24360708.6934   24360706.1084   24360708.0064
       209.0004        133.0004
  -8069537.62249  -6273655.79949  23309809.2854   23309815.0244   23309809.3714
       222.0004        162.0004
 -25780770.31349 -20074729.12249  19769636.6564   19769639.3994   19769636.6244
       243.0004        207.0004
  -9511540.48649  -7403266.29849  21114961.4484   21114964.3204   21114961.0344
       242.0004        199.0004
  -3804190.22349  -2788985.57949  23981792.9764   23981794.6134   23981793.9994
       206.0004        145.0004
  -3704294.67049  -2863208.69049  23498647.1474   23498650.2934   23498646.9044
       209.0004        148.0004
 -20250412.71349 -15204872.02849  20877305.2484   20877306.9174   20877305.1434
       243.0004        198.0004
 -10155764.43249  -7899775.25949  23001014.0394   23001015.7584   23001012.2354
       227.0004        169.0004
  -6885168.57149  -5354017.36149  22870721.5584   22870724.0604   22870722.6584
       229.0004        174.0004
 11 10  9  6 20 30.0000000  0  9G18G25G09G27G22G14G12G15G17
  -3905237.44649  -3024858.96749  24375926.9574   24375930.9504   24375927.2544
       203.0004        135.0004
  -8167088.82849  -6349669.72749  23291245.2034   23291251.1524   23291244.8564
       222.0004        163.0004
 -25766399.70449 -20063531.26149  19772371.2184   19772374.3754   19772371.0504
       244.0004        207.0004
  -9475139.49449  -7374901.91849  21121888.4454   21121891.6744   21121888.0674
       242.0004        199.0004
  -3765413.00249  -2758769.57249  23989171.9614   23989174.2854   23989172.3124
       206.0004        145.0004
  -3796376.34349  -2934960.66849  23481124.0174   23481126.9954   23481124.5194
       211.0004        148.0004
 -20306110.41049 -15248272.84149  20866705.6844   20866708.0344   20866705.6324
       242.0004        198.0004
 -10052304.39249  -7819157.12649  23020701.6234   23020704.4704   23020699.7214
       224.0004        169.0004
  -6830090.21249  -5311099.20049  22881203.7594   22881206.1764   22881203.7694
       229.0004        173.0004
 11 10  9  6 21  0.0000000  0  9G18G25G09G27G22G14G12G15G17
  -3825056.95449  -2962380.70349  24391188.3994   24391188.2694   24391185.6494
       206.0004        133.0004
  -8264444.25049  -6425531.07849  23272718.3364   23272725.4584   23272718.4964
       218.0004        161.0004
 -25751524.58349 -20051940.28449  19775201.4994   19775205.0784   19775201.6464
       243.0004        207.0004
  -9438443.95749  -7346308.01849  21128870.9424   21128874.3614   21128870.8634
       242.0004        199.0004
  -3726179.53949  -2728198.09249  23996639.7724   23996640.3104   23996638.4854
       212.0004        147.0004
  -3888169.89349  -3006488.08449  23463658.3744   23463661.3684   23463657.1484
       214.0004        151.0004
 -20361392.37049 -15291349.70649  20856185.6044   20856188.3584   20856186.1194
       241.0004        199.0004
  -9948618.22449  -7738362.80049  23040428.8134   23040434.6464   23040431.6374
       220.0004        167.0004
  -6774523.02849  -5267800.14449  22891776.6694   22891780.1374   22891778.3354
       226.0004        173.0004
 11 10  9  6 21 30.0000000  0  9G18G25G09G27G22G14G12G15G17
  -3744686.03349  -2899754.03049  24406480.7834   24406480.4124   24406478.5274
       206.0004        131.0004
  -8361602.86149  -6501239.07649  23254228.8654   23254236.7194   23254229.7824
       220.0004        161.0004
 -25736145.35749 -20039956.49349  19778129.1394   19778131.6264   19778129.0504
       245.0004        207.0004
  -9401454.10549  -7317484.77749  21135910.0994   21135913.7064   21135910.0614
       242.0004        199.0004
  -3686491.85849  -2697272.67449  24004191.9244   24004192.5924   24004191.6584
       210.0004        147.0004
  -3979673.25949  -3077789.43349  23446244.7784   23446247.7044   23446244.7244
       216.0004        151.0004
 -20416258.83349 -15334102.80149  20845745.1364   20845747.9294   20845745.2274
       241.0004        199.0004
  -9844708.73849  -7657394.43149  23060201.6374   23060207.1834   23060203.6454
       221.0004        165.0004
  -6718469.65449  -5224122.22949  22902445.0054   22902446.6104   22902444.6074
       228.0004        173.0004
 11 10  9  6 22  0.0000000  0  9G18G25G09G27G22G14G12G15G17
  -3664127.56549  -2836981.28249  24421813.3434   24421813.0574   24421810.8634
       206.0004        132.0004
  -8458563.24049  -6576792.63649  23235778.6384   23235785.3094   23235778.9834
       220.0004        161.0004
 -25720261.60449 -20027579.56949  19781151.9584   19781153.9944   19781151.4304
       244.0004        207.0004
  -9364169.82249  -7288432.13149  21143005.3814   21143008.5474   21143004.8674
       241.0004        198.0004
  -3646351.24549  -2665994.30249  24011829.4424   24011829.5424   24011829.5244
       209.0004        146.0004
  -4070883.53749  -3148862.41449  23428888.4364   23428890.0404   23428888.1864
       216.0004        150.0004
 -20470708.68149 -15376531.26449  20835382.6354   20835386.1454   20835383.4854
       240.0004        198.0004
  -9740578.08149  -7576253.73349  23080018.5584   23080023.5164   23080020.2784
       222.0004        165.0004
  -6661931.46549  -5180066.52149  22913200.9204   22913205.4654   22913202.5484
       226.0004        172.0004
 11 10  9  6 22 30.0000000  0  9G18G25G09G27G22G14G12G15G17
  -3583384.19549  -2774064.42649  24437172.4214   24437174.9174   24437172.8784
       198.0004        129.0004
  -8555324.07149  -6652190.70749  23217365.3884   23217372.4934   23217365.4194
       219.0004        161.0004
 -25703872.97449 -20014809.24149  19784270.2294   19784273.0514   19784270.4704
       244.0004        207.0004
  -9326590.90749  -7259149.90449  21150155.1834   21150159.2664   21150155.4844
       240.0004        197.0004
  -3605759.73449  -2634364.58549  24019554.1684   24019554.7374   24019554.0494
       210.0004        146.0004
  -4161797.99749  -3219704.88049  23411587.1944   23411590.0254   23411586.8144
       214.0004        149.0004
 -20524741.49449 -15418634.76349  20825101.1334   20825103.9214   20825101.6244
       240.0004        198.0004
  -9636228.28649  -7494942.30349  23099877.2374   23099881.3494   23099876.7644
       224.0004        166.0004
  -6604910.09449  -5135634.32649  22924053.8104   22924055.6584   22924053.9884
       228.0004        171.0004
 11 10  9  6 23  0.0000000  0  9G18G25G09G27G22G14G12G15G17
  -3502459.38549  -2711006.15749  24452575.1434   24452576.5834   24452574.6214
       205.0004        130.0004
  -8651884.88149  -6727432.88449  23198989.5534   23198996.9054   23198990.1444
       219.0004        161.0004
 -25686980.23849 -20001646.08449  19787483.2464   19787487.5364   19787483.7334
       243.0004        207.0004
  -9288718.20249  -7229638.72949  21157362.8794   21157366.0604   21157362.8084
       241.0004        197.0004
  -3564720.12849  -2602385.70449  24027365.4364   24027364.6844   24027365.0504
       213.0004        148.0004
  -4252414.55449  -3290315.18849  23394344.7204   23394345.6174   23394344.4364
       216.0004        150.0004
 -20578357.21049 -15460413.25449  20814899.0204   20814901.0284   20814898.9604
       242.0004        198.0004
  -9531662.69749  -7413462.71949  23119776.5804   23119778.5684   23119775.1344
       224.0004        164.0004
  -6547408.23949  -5090827.72449  22934996.6554   22934999.3734   22934995.3824
       228.0004        172.0004
 11 10  9  6 23 30.0000000  0  9G18G25G09G27G22G14G12G15G17
  -3421355.93349  -2647808.72249  24468008.7474   24468011.4194   24468008.4604
       207.0004        134.0004
  -8748244.06649  -6802517.94649  23180654.5484   23180660.8604   23180653.8514
       222.0004        164.0004
 -25669583.05849 -19988089.87349  19790794.7634   19790798.1084   19790795.1124
       245.0004        207.0004
  -9250551.06949  -7199898.13349  21164625.6314   21164629.3094   21164626.0244
       241.0004        197.0004
  -3523233.58249  -2570058.55449  24035260.6764   24035259.6034   24035259.2794
       212.0004        146.0004
  -4342730.47149  -3360691.24349  23377156.8634   23377159.7324   23377157.2464
       214.0004        152.0004
 -20631554.61549 -15501865.77549  20804775.1744   20804777.8904   20804775.6084
       241.0004        198.0004
  -9426882.99149  -7331816.27549  23139712.9524   23139716.9244   23139713.5484
       221.0004        163.0004
  -6489427.39749  -5045647.89049  22946028.7834   22946032.3824   22946028.7744
       227.0004        172.0004
 11 10  9  6 24  0.0000000  0  9G18G25G09G27G22G14G12G15G17
  -3340075.88749  -2584473.68849  24483475.7894   24483477.1524   24483473.3614
       202.0004        132.0004
  -8844399.53249  -6877444.29049  23162357.8144   23162363.8524   23162356.8054
       225.0004        164.0004
 -25651680.35249 -19974139.74049  19794202.9424   19794204.8254   19794202.5684
       247.0004        207.0004
  -9212088.82949  -7169927.58549  21171944.8884   21171948.6734   21171944.9794
       240.0004        197.0004
  -3481301.65649  -2537384.35949  24043236.3374   24043237.7974   24043237.9244
       206.0004        141.0004
  -4432742.37949  -3430830.38749  23360028.7944   23360031.0834   23360028.6834
       213.0004        152.0004
 -20684332.54549 -15542991.44149  20794731.8784   20794734.4894   20794732.0564
       240.0004        198.0004
  -9321890.99449  -7250004.38249  23159691.4244   23159697.0134   23159692.2014
       220.0004        165.0004
  -6430968.83149  -5000095.78849  22957154.1094   22957156.8514   22957153.9204
       227.0004        172.0004
 11 10  9  6 24 30.0000000  0  9G18G25G09G27G22G14G12G15G17
  -3258623.44649  -2521004.24849  24498973.7114   24498976.1334   24498972.4954
       206.0004        132.0004
  -8940351.53349  -6952212.08449  23144097.6524   23144104.5734   23144098.7814
       224.0004        163.0004
 -25633273.78949 -19959797.00049  19797705.1274   19797707.4394   19797704.7974
       246.0004        207.0004
  -9173332.97749  -7139728.26149  21179320.3284   21179323.6274   21179320.3704
       241.0004        198.0004
  -3438927.51849  -2504365.56249  24051303.3284   24051300.5864   24051301.2974
       208.0004        143.0004
  -4522448.87349  -3500731.54749  23342957.5504   23342960.4264   23342957.6754
       215.0004        152.0004
 -20736691.62449 -15583790.73049  20784767.0324   20784771.1764   20784768.6614
       239.0004        198.0004
  -9216690.35549  -7168029.95149  23179709.4404   23179716.0764   23179711.1164
       220.0004        164.0004
  -6372036.01449  -4954174.16349  22968367.4794   22968371.4334   22968367.6464
       226.0004        171.0004
 11 10  9  6 25  0.0000000  0  9G18G25G09G27G22G14G12G15G17
  -3177000.93749  -2457402.36149  24514509.3804   24514509.1234   24514508.8054
       203.0004        130.0004
  -9036098.37049  -7026820.03449  23125878.4874   23125884.4034   23125878.1344
       222.0004        162.0004
 -25614362.57549 -19945061.00549  19801302.1904   19801306.0714   19801302.6594
       244.0004        206.0004
  -9134283.00749  -7109299.74949  21186751.4494   21186754.5904   21186750.9534
       241.0004        197.0004
  -3396112.68449  -2471003.39849  24059447.7204   24059450.4444   24059447.7844
       203.0004        145.0004
  -4611846.74749  -3570392.25849  23325947.1154   23325947.8764   23325945.8614
       216.0004        150.0004
 -20788631.09449 -15624263.05249  20774884.3164   20774886.9904   20774885.2704
       240.0004        198.0004
  -9111283.40749  -7085894.76349  23199769.6764   23199774.5744   23199770.6834
       224.0004        163.0004
  -6312629.95549  -4907883.75849  22979673.3554   22979674.3584   22979673.7044
       228.0004        170.0004
 11 10  9  6 25 30.0000000  0  9G18G25G09G27G22G14G12G15G17
  -3095211.29349  -2393670.24149  24530071.3804   24530075.0764   24530072.8754
       200.0004        131.0004
  -9131638.73049  -7101267.05249  23107697.2044   23107703.6954   23107697.2124
       225.0004        165.0004
 -25594946.51449 -19929931.62049  19804997.2544   19805000.9574   19804997.4264
       244.0004        206.0004
  -9094938.85849  -7078641.99649  21194237.7634   21194241.1894   21194237.7934
       240.0004        197.0004
  -3352858.80649  -2437299.08949  24067678.7924   24067679.3374   24067677.2934
       207.0004        143.0004
  -4700933.48349  -3639810.51349  23308992.5144   23308995.8054   23308993.6594
       213.0004        152.0004
 -20840149.75549 -15664407.46749  20765081.1174   20765083.5354   20765081.4094
       241.0004        198.0004
  -9005671.84049  -7003600.11049  23219869.5654   23219871.9504   23219869.2064
       225.0004        166.0004
  -6252752.74749  -4861226.23849  22991066.8644   22991069.9734   22991066.5724
       227.0004        171.0004
 11 10  9  6 26  0.0000000  0  9G18G25G09G27G22G14G12G15G17
  -3013257.58349  -2329810.24549  24545665.2354   24545666.5624   24545663.2584
       197.0004        130.0004
  -9226971.47649  -7175552.30149  23089557.8684   23089561.9404   23089555.4674
       227.0004        167.0004
 -25575026.00449 -19914409.17749  19808788.9764   19808791.6734   19808788.8564
       246.0004        206.0004
  -9055300.73549  -7047755.16849  21201780.8184   21201784.4824   21201780.4814
       240.0004        196.0004
  -3309168.39349  -2403254.67449  24075993.7544   24075995.6754   24075992.8434
       206.0004        146.0004
  -4789706.60449  -3708984.37049  23292099.5174   23292102.6584   23292100.1844
       213.0004        152.0004
 -20891247.37149 -15704223.79749  20755357.3654   20755359.6114   20755357.5054
       241.0004        197.0004
  -8899858.27349  -6921148.06949  23240005.9024   23240008.0554   23240004.9264
       224.0004        164.0004
  -6192406.60749  -4814203.31149  23002550.3704   23002552.9614   23002550.3364
       226.0004        168.0004
 11 10  9  6 26 30.0000000  0  9G18G25G09G27G22G14G12G15G17
  -2931142.57949  -2265824.53849  24561293.8994   24561297.5644   24561291.6174
       202.0004        131.0004
  -9322095.43149  -7249674.85449  23071455.0184   23071460.6594   23071455.4534
       225.0004        165.0004
 -25554600.82149 -19898493.47649  19812676.2794   19812678.6794   19812676.1854
       246.0004        206.0004
  -9015368.52249  -7016639.19849  21209380.3344   21209383.2944   21209380.2354
       241.0004        196.0004
  -3265043.38249  -2368871.58449  24084389.7514   24084391.0334   24084390.7204
       204.0004        145.0004
  -4878163.24649  -3777911.63149  23275266.3824   23275269.9694   23275267.3634
       212.0004        151.0004
 -20941923.51949 -15743711.71549  20745714.1904   20745716.5934   20745714.4684
       241.0004        198.0004
  -8793845.13049  -6838540.52449  23260178.5564   23260181.0554   23260178.4404
       224.0004        162.0004
  -6131593.39849  -4766816.42449  23014123.2464   23014126.3284   23014123.0274
       225.0004        167.0004
 11 10  9  6 27  0.0000000  0  9G18G25G09G27G22G14G12G15G17
  -2848869.38549  -2201715.61549  24576951.1054   24576950.6294   24576949.0474
       207.0004        131.0004
  -9417009.47149  -7323633.83549  23053391.2754   23053400.0924   23053392.1324
       221.0004        162.0004
 -25533670.91349 -19882184.47249  19816658.5214   19816661.4154   19816658.6624
       245.0004        207.0004
  -8975142.36349  -6985294.16349  21217034.8644   21217038.1914   21217034.6574
       240.0004        196.0004
  -3220485.65249  -2334151.29749  24092868.9374   24092871.6474   24092868.8644
       208.0004        144.0004
