     2.11           OBSERVATION DATA    G (GPS)             RINEX VERSION / TYPE
teqc  2013Mar15                         20160913 13:06:34UTCPGM / RUN BY / DATE
OSX ker:10.8.0|Core 2 Duo|gcc 4.2 -m64|OSX ker:10.8.0+|=+   COMMENT
Linux 2.4.21-27.ELsmp|Opteron|gcc -static|Linux x86_64|=+   COMMENT
HEADER CHANGED BY EPN CB ON 2011-10-10                      COMMENT
TO BE CONFORM WITH THE INFORMATION IN                       COMMENT
ftp://epncb.oma.be/pub/station/log/brus.log                 COMMENT
                                                            COMMENT
teqc  2010Oct21                         20111010 00:01:17UTCCOMMENT
teqc  2010Oct21                         20111010 00:01:02UTCCOMMENT
teqc  2010Oct21                         20111009 01:01:01UTCCOMMENT
BIT 2 OF LLI FLAGS DATA COLLECTED UNDER A/S CONDITION       COMMENT
 SNR is mapped to RINEX snr flag value [0-9]                COMMENT
  L1 & L2: min(max(int(snr_dBHz/6), 0), 9)                  COMMENT
pseudorange smoothing corrections not applied               COMMENT
COORDINATES IN ETRF2000                                     COMMENT
Forced Modulo Decimation to 30 seconds                      COMMENT
BRUS                                                        MARKER NAME
13101M004                                                   MARKER NUMBER
Carine Bruyninx     ROB                                     OBSERVER / AGENCY
RT919994505         ASHTECH Z-XII3T     1L01-1D04           REC # / TYPE / VERS
CR519994604         ASH701945B_M    NONE                    ANT # / TYPE
  4027894.0130   307045.5980  4919474.9120                  APPROX POSITION XYZ
        3.9702        0.0000        0.0000                  ANTENNA: DELTA H/E/N
     1     1                                                WAVELENGTH FACT L1/2
     7    L1    L2    C1    P2    P1    S1    S2            # / TYPES OF OBSERV
    30.0000                                                 INTERVAL
teqc windowed: start @ 2011 Oct  9 18:00:00.000             COMMENT
teqc windowed: delta = 21600.000 sec                        COMMENT
  2011    10     9    18     0    0.0000000     GPS         TIME OF FIRST OBS
                                                            END OF HEADER
 11 10  9 18  0  0.0000000  0 10G17G28G32G19G01G14G09G11G22G20
  -3989098.82349  -3091256.27649  24179075.9494   24179081.2904   24179078.3054
       214.0004        154.0004
  -7017043.54549  -5455117.53949  23565375.7334   23565378.1424   23565375.7984
       218.0004        149.0004
 -21023406.97749 -16365730.07149  20517649.0374   20517651.4594   20517648.4894
       245.0004        201.0004
  -8955780.83949  -6944159.66049  22983786.4854   22983789.5694   22983785.1964
       223.0004        168.0004
 -14136735.25949 -10998346.76049  20365434.5924   20365440.1264   20365434.4134
       246.0004        210.0004
  -6253687.67349  -4478664.80449  22527547.4704   22527549.9834   22527547.5654
       225.0004        166.0004
   1392374.54149     87624.23449  25121190.4664
       179.0004        108.0004
 -22393394.73049 -17168887.23249  20133886.8224   20133888.5034   20133886.6484
       238.0004        201.0004
   -486170.20849     56590.33349  24737653.1104
       185.0004         74.0004
 -16968825.27549 -12648667.12849  21639930.1084   21639933.7914   21639930.1714
       233.0004        182.0004
 11 10  9 18  0 30.0000000  0 10G17G28G32G19G01G14G09G11G22G20
  -4089349.68849  -3169373.76749  24159999.8734   24160004.0724   24159999.5104
       212.0004        151.0004
  -6986019.97349  -5430943.34749  23571279.7364   23571280.9184   23571279.8904
       218.0004        150.0004
 -21048297.31249 -16385125.10249  20512912.5784   20512915.3804   20512911.4504
       244.0004        201.0004
  -8853838.16549  -6864723.85349  23003186.6794   23003187.5824   23003184.2424
       225.0004        168.0004
 -14164216.42149 -11019760.65049  20360204.8054   20360210.8204   20360204.6664
       245.0004        210.0004
  -6218067.15149  -4450908.54549  22534326.4444   22534329.7354   22534326.5524
       226.0004        166.0004
   1435176.00559     20337.84259  25129335.2164
       182.0004         74.0004
 -22373014.74949 -17153006.73349  20137764.7504   20137766.5054   20137764.4334
       237.0004        201.0004
   -385815.77149    134815.99749  24756751.1874
       189.0004        108.0004
 -17048955.01749 -12711105.82649  21624682.2954   21624685.6784   21624682.1934
       233.0004        181.0004
 11 10  9 18  1  0.0000000  0 10G17G28G32G19G01G14G09G11G22G20
  -4189394.98449  -3247331.10749  24140961.8144   24140965.8054   24140961.8154
       211.0004        145.0004
  -6954500.21949  -5406382.50549  23577277.4414   23577279.6704   23577276.5814
       216.0004        149.0004
 -21072702.57149 -16404142.16349  20508266.7664   20508270.8974   20508266.7834
       242.0004        201.0004
  -8751665.36549  -6785108.73149  23022630.6964   23022631.5554   23022629.0144
       227.0004        168.0004
 -14191315.35749 -11040876.69549  20355048.7314   20355054.0644   20355048.6624
       246.0004        210.0004
  -6181887.05849  -4422716.25849  22541210.1294   22541213.7774   22541211.4534
       225.0004        166.0004
   1478558.13659     54042.71159  25137591.0184
       170.0004        108.0004
 -22352156.91549 -17136753.88249  20141734.1624   20141736.0584   20141733.6554
       238.0004        201.0004
   -285411.89449    213083.88449  24775858.8574
       184.0004        111.0004
 -17128752.79449 -12773285.87249  21609498.6194   21609500.7094   21609497.7894
       235.0004        183.0004
 11 10  9 18  1 30.0000000  0 10G17G28G32G19G01G14G09G11G22G20
  -4289231.99049  -3325126.13549  24121963.9344   24121966.9814   24121962.2074
       208.0004        144.0004
  -6922484.55549  -5381435.27449  23583368.5824   23583371.6884   23583367.8234
       214.0004        148.0004
 -21096622.20349 -16422780.81149  20503716.5434   20503719.0494   20503715.5524
       244.0004        201.0004
  -8649264.19949  -6705315.66049  23042118.0844   23042117.9554   23042115.1784
       228.0004        169.0004
 -14218030.71749 -11061693.84749  20349964.3484   20349970.4164   20349964.2714
       244.0004        210.0004
  -6145148.27849  -4394088.62949  22548203.8424   22548204.9364   22548202.4124
       228.0004        167.0004
   1522519.92459     88168.77959  25145954.8794
       173.0004        110.0004
 -22330821.00549 -17120128.50149  20145793.7744   20145795.7544   20145793.5734
       237.0004        201.0004
   -184959.41649     50229.77449  24794970.7744
       179.0004         74.0004
 -17208216.78049 -12835205.80849  21594375.9384   21594379.0664   21594375.8754
       235.0004        182.0004
 11 10  9 18  2  0.0000000  0 10G17G28G32G19G01G14G09G11G22G20
  -4388858.95649  -3402757.46149  24103005.0174   24103008.8934   24103005.0314
       210.0004        148.0004
  -6889975.88249  -5356103.88149  23589556.3524   23589558.2304   23589555.0884
       213.0004        148.0004
 -21120057.29449 -16441041.90549  20499255.3834   20499259.6744   20499255.3984
       243.0004        201.0004
  -8546637.76049  -6625347.05949  23061645.2854   23061646.9444   23061643.9814
       224.0004        168.0004
 -14244362.48049 -11082212.09749  20344952.8794   20344959.4874   20344953.2624
       244.0004        210.0004
  -6107852.66449  -4365027.11249  22555298.9264   22555302.3284   22555299.9104
       227.0004        166.0004
   1567058.91259     18241.61359  25154435.9264
       168.0004         74.0004
 -22309008.02149 -17103131.36949  20149944.0174   20149946.8264   20149944.0204
       237.0004        201.0004
    -84460.99749    128511.73249  24814092.6134
       177.0004        107.0004
 -17287346.68349 -12896865.43649  21579316.9084   21579321.5664   21579316.6464
       233.0004        182.0004
 11 10  9 18  2 30.0000000  0  9G17G28G32G19G01G14G11G22G20
  -4488272.15549  -3480222.26149  24084088.3784   24084090.6794   24084088.2344
       212.0004        150.0004
  -6856974.92149  -5330388.85249  23595835.0894   23595837.8894   23595834.9664
       214.0004        148.0004
 -21143006.74649 -16458924.59249  20494888.6764   20494892.2014   20494888.7214
       243.0004        201.0004
  -8443786.65249  -6545203.36349  23081215.1384   23081218.4164   23081214.4204
       223.0004        166.0004
 -14270308.54349 -11102429.80149  20340016.5984   20340022.2004   20340016.4294
       245.0004        210.0004
  -6070000.55149  -4335531.95349  22562502.1624   22562503.2654   22562502.0234
       226.0004        164.0004
 -22286716.86649 -17085761.64349  20154186.5544   20154188.4934   20154186.4854
       239.0004        201.0004
     16083.56759    206822.52059  24833227.3134
       179.0004        107.0004
 -17366140.24849 -12958262.96949  21564324.1704   21564327.3174   21564323.2674
       234.0004        183.0004
 11 10  9 18  3  0.0000000  0  9G17G28G32G19G01G14G11G22G20
  -4587469.30749  -3557518.69149  24065210.3214   24065213.8644   24065211.3344
       215.0004        154.0004
  -6823483.26149  -5304291.47949  23602208.0604   23602211.9624   23602208.1504
       212.0004        147.0004
 -21165471.40049 -16476429.48649  20490615.3054   20490617.4034   20490613.7254
       244.0004        201.0004
  -8340713.68049  -6464886.79549  23100831.5534   23100832.5924   23100830.3074
       224.0004        167.0004
 -14295868.47749 -11122346.62249  20335152.5224   20335158.2084   20335152.6104
       245.0004        210.0004
  -6031593.85049  -4305604.64749  22569810.9294   22569813.2244   22569810.3784
       225.0004        164.0004
 -22263948.47849 -17068020.04549  20158519.6824   20158521.3924   20158519.2534
       238.0004        201.0004
    116672.10349     43727.42549  24852372.6904
       172.0004         74.0004
 -17444596.58749 -13019397.74149  21549394.8424   21549397.6444   21549394.1484
       234.0004        183.0004
 11 10  9 18  3 30.0000000  0  9G17G28G32G19G01G14G11G22G20
  -4686448.35549  -3634645.18649  24046375.4744   24046379.6654   24046376.6434
       213.0004        156.0004
  -6789502.76149  -5277813.17649  23608676.2374   23608678.4374   23608676.1854
       215.0004        149.0004
 -21187451.32349 -16493556.69249  20486430.6494   20486434.4614   20486430.6424
       242.0004        201.0004
  -8237420.94149  -6384399.00649  23120486.9374   23120489.2904   23120485.8974
       221.0004        167.0004
 -14321041.50649 -11141961.95549  20330362.5544   20330367.9264   20330362.0324
       245.0004        210.0004
  -5992634.03849  -4275246.31549  22577225.7124   22577227.7084   22577225.1534
       227.0004        166.0004
 -22240703.33549 -17049906.95049  20162941.9364   20162944.3584   20162942.3434
       237.0004        201.0004
    217303.13559    122165.97559  24871525.0164
       174.0004        107.0004
 -17522714.73549 -13080268.97949  21534528.4414   21534532.5024   21534527.7014
       232.0004        183.0004
 11 10  9 18  4  0.0000000  0  9G17G28G32G19G01G14G11G22G20
  -4785207.15049  -3711600.01549  24027584.0264   24027585.8124   24027583.9934
       216.0004        153.0004
  -6755035.45149  -5250955.51849  23615233.9924   23615236.0124   23615233.1194
       214.0004        147.0004
 -21208947.25749 -16510306.75449  20482341.3974   20482344.1724   20482340.8964
       244.0004        201.0004
  -8133911.06549  -6303742.03149  23140183.6464   23140185.4434   23140183.1694
       222.0004        165.0004
 -14345827.15349 -11161275.43049  20325644.6994   20325651.3734   20325644.9324
       244.0004        210.0004
  -5953122.81749  -4244458.34549  22584742.9844   22584745.3234   22584743.1764
       225.0004        167.0004
 -22216981.80949 -17031422.64349  20167456.3914   20167458.6344   20167456.1254
       238.0004        201.0004
    317974.92759    200646.15859  24890676.1684
       171.0004        107.0004
 -17600493.98549 -13140876.14949  21519726.1814   21519731.0434   21519726.3324
       231.0004        183.0004
 11 10  9 18  4 30.0000000  0  8G17G28G32G19G01G14G11G20
  -4883741.99349  -3788380.35449  24008833.9674   24008834.9784   24008832.2634
       214.0004        150.0004
  -6720081.86449  -5223718.97849  23621883.7364   23621887.1784   23621884.2734
       210.0004        145.0004
 -21229958.28649 -16526678.95449  20478342.8004   20478345.7714   20478341.8034
       243.0004        201.0004
  -8030185.16749  -6222916.67649  23159922.7684   23159923.1924   23159922.1934
       225.0004        164.0004
 -14370223.42649 -11180285.49549  20321003.0664   20321008.9094   20321002.5874
       245.0004        210.0004
  -5913060.61349  -4213241.03549  22592368.2804   22592369.5234   22592367.1254
       227.0004        168.0004
 -22192783.27449 -17012566.65449  20172062.1484   20172063.4154   20172061.8424
       238.0004        201.0004
 -17677931.87549 -13201217.31649  21504991.9654   21504994.5174   21504991.3004
       233.0004        183.0004
 11 10  9 18  5  0.0000000  0  8G17G28G32G19G01G14G11G20
  -4982051.65349  -3864985.22749  23990124.5704   23990126.4224   23990123.6524
       214.0004        150.0004
  -6684644.89749  -5196105.78249  23628627.3804   23628632.9744   23628628.1194
       211.0004        145.0004
 -21250486.00449 -16542674.57449  20474435.5654   20474439.8244   20474436.0044
       243.0004        201.0004
  -7926246.28249  -6141925.35449  23179701.0674   23179702.8114   23179699.5284
       222.0004        165.0004
 -14394230.77849 -11198992.51049  20316434.7504   20316440.4914   20316434.5194
       245.0004        210.0004
  -5872450.18349  -4181596.54749  22600095.0824   22600097.5284   22600095.0494
       227.0004        166.0004
 -22168109.25149 -16993340.14049  20176757.1184   20176758.8134   20176756.7704
       238.0004        201.0004
 -17755028.62249 -13261292.66549  21490321.2344   21490324.1734   21490320.5154
       234.0004        184.0004
 11 10  9 18  5 30.0000000  0  8G17G28G32G19G01G14G11G20
  -5080132.50749  -3941411.85549  23971459.6734   23971462.7804   23971460.5394
       217.0004        151.0004
  -6648725.25749  -5168116.48149  23635463.2884   23635467.3234   23635462.6424
       213.0004        147.0004
 -21270529.56649 -16558292.92449  20470623.1824   20470625.9164   20470622.2564
       244.0004        201.0004
  -7822095.65949  -6060769.11849  23199518.4904   23199523.2354   23199519.4404
       221.0004        166.0004
 -14417847.31349 -11217394.99249  20311940.5584   20311946.2024   20311940.4614
       245.0004        210.0004
  -5831291.97449  -4149525.19849  22607927.4144   22607929.6344   22607927.5554
       225.0004        165.0004
 -22142958.88849 -16973742.45049  20181542.1764   20181544.2784   20181542.5844
       237.0004        200.0004
 -17831782.00749 -13321100.46649  21475715.3384   21475718.5074   21475714.7174
       234.0004        184.0004
 11 10  9 18  6  0.0000000  0  8G17G28G32G19G01G14G11G20
  -5177982.46449  -4017658.55049  23952839.4574   23952842.5634   23952840.0664
       217.0004        152.0004
  -6612324.97049  -5139752.65249  23642392.1504   23642392.9714   23642390.1424
       212.0004        147.0004
 -21290089.66249 -16573534.53549  20466899.6244   20466903.3164   20466899.0714
       243.0004        201.0004
  -7717735.86349  -5979449.83749  23219378.7524   23219380.9404   23219378.1524
       224.0004        165.0004
 -14441072.51049 -11235492.53449  20307520.5304   20307526.7494   20307520.6934
       245.0004        211.0004
  -5789587.63249  -4117028.29449  22615862.4944   22615866.4904   22615863.0654
       224.0004        166.0004
 -22117332.83849 -16953774.09949  20186418.7714   20186421.0434   20186418.7494
       237.0004        200.0004
 -17908191.15949 -13380640.03049  21461174.0354   21461178.1684   21461174.1634
       234.0004        185.0004
 11 10  9 18  6 30.0000000  0  8G17G28G32G19G01G14G11G20
  -5275599.47949  -4093723.70549  23934263.4584   23934267.5224   23934264.0084
       213.0004        154.0004
  -6575446.16249  -5111015.93449  23649407.0154   23649413.4924   23649408.7964
       210.0004        148.0004
 -21309166.78349 -16588399.82449  20463268.8814   20463273.4254   20463268.9454
       242.0004        201.0004
  -7613169.09649  -5897969.26549  23239276.5574   23239280.4274   23239276.3554
       221.0004        163.0004
 -14463905.72649 -11253284.65649  20303175.5944   20303181.9354   20303175.9234
       245.0004        211.0004
  -5747339.04949  -4084107.30549  22623904.0754   22623906.1544   22623902.4904
       228.0004        167.0004
 -22091231.75449 -16933435.60249  20191386.6094   20191388.1544   20191386.2294
       238.0004        200.0004
 -17984255.29149 -13439910.75049  21446700.8414   21446704.0134   21446700.2294
       235.0004        186.0004
 11 10  9 18  7  0.0000000  0  8G17G28G32G19G01G14G11G20
  -5372980.32849  -4169604.79949  23915734.0664   23915736.7104   23915733.7334
       214.0004        152.0004
  -6538090.17149  -5081907.39349  23656515.5654   23656521.8984   23656517.1984
       211.0004        148.0004
 -21327761.14649 -16602888.91749  20459731.5584   20459734.7504   20459730.7904
       243.0004        201.0004
  -7508397.64149  -5816329.22149  23259213.9534   23259218.5664   23259214.5374
       221.0004        165.0004
 -14486345.97949 -11270770.56049  20298905.8234   20298911.4934   20298905.5304
       245.0004        210.0004
  -5704547.64849  -4050763.32649  22632045.4764   22632046.8864   22632045.8654
       226.0004        166.0004
 -22064655.82649 -16912727.07249  20196442.9394   20196445.3124   20196442.8734
       237.0004        200.0004
 -18059973.18849 -13498911.67349  21432292.3474   21432295.5234   21432291.4254
       236.0004        186.0004
 11 10  9 18  7 30.0000000  0  8G17G28G32G19G01G14G11G20
  -5470122.73649  -4245300.13349  23897246.9294   23897250.3004   23897247.8604
       215.0004        153.0004
  -6500258.48249  -5052428.16049  23663716.7814   23663719.9764   23663714.6474
       212.0004        146.0004
 -21345872.54849 -16617001.68649  20456283.8504   20456287.9564   20456283.7464
       242.0004        201.0004
  -7403422.77349  -5734530.68449  23279191.7034   23279195.0264   23279190.8124
       224.0004        168.0004
 -14508391.96549 -11287949.24349  20294710.5584   20294716.0014   20294710.2694
       245.0004        211.0004
  -5661214.51049  -4016997.21449  22640292.3354   22640294.2384   22640291.7534
       227.0004        166.0004
 -22037604.84649 -16891648.39349  20201590.6704   20201592.9204   20201590.8874
       238.0004        200.0004
 -18135342.89349 -13557641.27049  21417949.4224   21417951.8854   21417948.9094
       236.0004        186.0004
 11 10  9 18  8  0.0000000  0  8G17G28G32G19G01G14G11G20
  -5567024.45049  -4320807.90949  23878806.8464   23878810.2344   23878808.0664
       218.0004        154.0004
  -6461953.62449  -5022580.24249  23671003.3264   23671009.2104   23671003.5774
       208.0004        144.0004
 -21363502.00649 -16630738.90449  20452929.9084   20452933.5634   20452929.6134
       243.0004        201.0004
  -7298247.71949  -5652576.13949  23299206.0014   23299206.7424   23299205.0384
       223.0004        161.0004
 -14530043.55949 -11304820.61249  20290589.9544   20290596.0954   20290589.7594
       245.0004        210.0004
  -5617341.81549  -3982810.69049  22648639.8654   22648642.5674   22648640.6154
       225.0004        164.0004
 -22010079.82549 -16870200.34849  20206829.1724   20206831.0144   20206829.1774
       238.0004        200.0004
 -18210364.40049 -13616099.56349  21403672.7274   21403675.6324   21403672.4704
       234.0004        187.0004
 11 10  9 18  8 30.0000000  0  8G17G28G32G19G01G14G11G20
  -5663682.80349  -4396126.08749  23860414.0034   23860417.2264   23860414.4174
       219.0004        153.0004
  -6423177.00149  -4992364.71549  23678383.7854   23678386.4494   23678383.5094
       210.0004        143.0004
 -21380649.78949 -16644100.77849  20449666.9454   20449670.4214   20449666.2304
       243.0004        201.0004
  -7192874.39149  -5570467.08349  23319257.1894   23319259.0674   23319256.2704
       219.0004        160.0004
 -14551299.72249 -11321383.86049  20286544.9394   20286551.1154   20286545.4334
       245.0004        210.0004
  -5572930.76549  -3948204.66349  22657092.6434   22657094.2934   22657091.9354
       227.0004        165.0004
 -21982080.90949 -16848383.01749  20212156.5674   20212158.6744   20212156.9354
       237.0004        200.0004
 -18285036.20949 -13674285.33249  21389463.8844   21389466.3994   21389463.8834
       237.0004        188.0004
 11 10  9 18  9  0.0000000  0  8G17G28G32G19G01G14G11G20
  -5760094.74849  -4471252.25249  23842067.2274   23842070.7554   23842067.8204
       217.0004        154.0004
  -6383929.85549  -4961782.53249  23685851.1094   23685855.7404   23685851.4924
       212.0004        145.0004
 -21397315.62149 -16657087.13949  20446495.6834   20446499.0204   20446495.3624
       243.0004        202.0004
  -7087304.25449  -5488204.66649  23339346.3204   23339350.1944   23339345.8774
       221.0004        165.0004
 -14572159.06049 -11337637.91049  20282576.4664   20282582.0514   20282576.3104
       245.0004        211.0004
  -5527982.77049  -3913180.22549  22665643.8234   22665647.5284   22665643.4874
       223.0004        164.0004
 -21953608.24249 -16826196.54449  20217575.6594   20217577.2144   20217575.0544
       238.0004        200.0004
 -18359356.81149 -13732197.43449  21375321.4774   21375324.0424   21375320.6844
       237.0004        187.0004
 11 10  9 18  9 30.0000000  0  8G17G28G32G19G01G14G11G20
  -5856258.33349  -4546184.88249  23823769.5994   23823771.2464   23823769.3764
       217.0004        155.0004
  -6344214.84249  -4930835.78149  23693408.5384   23693414.8234   23693408.6364
       211.0004        147.0004
 -21413500.41849 -16669698.63849  20443416.4474   20443418.9974   20443415.7044
       244.0004        202.0004
  -6981540.03349  -5405791.04649  23359470.7434   23359475.8384   23359472.8274
       221.0004        163.0004
 -14592621.28549 -11353582.48849  20278681.6824   20278687.8944   20278681.8644
       245.0004        211.0004
  -5482499.99049  -3877739.06149  22674301.0954   22674303.1034   22674301.1854
       228.0004        165.0004
 -21924662.34149 -16803641.28849  20223082.9174   20223085.3724   20223083.1064
       238.0004        200.0004
 -18433325.45949 -13789835.29749  21361244.8244   21361247.4024   21361243.9314
       236.0004        188.0004
 11 10  9 18 10  0.0000000  0  8G17G28G32G19G01G14G11G20
  -5952170.89049  -4620921.87249  23805517.2884   23805520.2174   23805515.9354
       215.0004        154.0004
  -6304033.58249  -4899525.72149  23701056.8674   23701060.1304   23701056.6404
       211.0004        146.0004
 -21429204.47949 -16681935.56949  20440427.3104   20440430.6334   20440426.9444
       243.0004        202.0004
  -6875583.68149  -5323227.71149  23379634.8924   23379637.3304   23379634.9544
       222.0004        162.0004
 -14612685.49849 -11369216.93249  20274863.7224   20274869.8584   20274863.9864
       245.0004        211.0004
  -5436484.02349  -3841882.47249  22683055.6404   22683059.3684   22683055.6404
       224.0004        165.0004
 -21895243.71649 -16780717.68149  20228681.1054   20228683.6594   20228681.1294
       237.0004        200.0004
 -18506941.10449 -13847198.11749  21347235.5564   21347239.1764   21347236.2494
       237.0004        187.0004
 11 10  9 18 10 30.0000000  0  8G17G28G32G19G01G14G11G20
  -6047829.55049  -4695461.03549  23787311.9384   23787316.4524   23787313.5494
       214.0004        154.0004
  -6263387.39249  -4867853.39649  23708789.9964   23708793.8654   23708791.2414
       212.0004        144.0004
 -21444427.97949 -16693798.04849  20437530.2744   20437533.8084   20437530.2474
       244.0004        202.0004
  -6769437.18849  -5240516.17549  23399836.7704   23399836.6914   23399835.7074
       225.0004        162.0004
 -14632350.54749 -11384540.33249  20271122.3384   20271127.7894   20271122.3374
       246.0004        211.0004
  -5389935.79149  -3805611.11049  22691914.2674   22691916.3744   22691914.7084
       226.0004        164.0004
 -21865352.67349 -16757425.95849  20234368.9164   20234371.5224   20234368.6574
       236.0004        199.0004
 -18580202.15749 -13904284.61249  21333296.5104   21333298.3684   21333295.5194
       238.0004        188.0004
 11 10  9 18 11  0.0000000  0  8G17G28G32G19G01G14G11G20
  -6143231.80049  -4769800.42849  23769158.6614   23769161.8614   23769158.9494
       218.0004        156.0004
  -6222278.46549  -4835820.49349  23716613.8384   23716618.4274   23716612.1044
       214.0004        144.0004
 -21459171.19649 -16705286.26749  20434725.1534   20434727.9214   20434724.2174
       244.0004        201.0004
  -6663102.55549  -5157658.04849  23420070.2704   23420073.3084   23420069.7684
       221.0004        162.0004
 -14651615.54049 -11399552.00249  20267456.6034   20267461.6044   20267456.2294
       246.0004        211.0004
  -5342856.93449  -3768926.25849  22700872.7574   22700875.9354   22700872.9514
       225.0004        164.0004
 -21834989.27749 -16733766.16649  20240147.0774   20240149.3644   20240147.3024
       238.0004        199.0004
 -18653107.71249 -13961094.07249  21319423.0474   21319424.9144   21319422.1384
       239.0004        189.0004
 11 10  9 18 11 30.0000000  0  8G17G28G32G19G01G14G11G20
  -6238375.55649  -4843938.37349  23751053.4014   23751056.3414   23751053.3064
       218.0004        154.0004
  -6180709.09949  -4803428.80749  23724524.4654   23724529.2044   23724525.1234
       212.0004        144.0004
 -21473435.14349 -16716401.01949  20432010.1294   20432013.8544   20432009.8914
       243.0004        202.0004
  -6556582.67049  -5074655.62449  23440339.8734   23440342.8044   23440339.5784
       218.0004        160.0004
 -14670480.32649 -11414251.80449  20263865.1604   20263872.1414   20263865.4734
       245.0004        211.0004
  -5295249.92849  -3731829.87749  22709932.6314   22709935.1754   22709933.7374
       225.0004        165.0004
 -21804154.60249 -16709739.14949  20246015.0644   20246017.1894   20246014.9314
       238.0004        200.0004
 -18725657.35249 -14017626.21449  21305616.2904   21305619.3824   21305615.6764
       237.0004        188.0004
 11 10  9 18 12  0.0000000  0  8G17G28G32G19G01G14G11G20
  -6333257.95849  -4917872.70749  23732996.8314   23733000.6024   23732997.6344
       216.0004        155.0004
  -6138680.76149  -4770679.44349  23732519.5234   23732527.8994   23732520.0394
       210.0004        146.0004
 -21487219.75249 -16727142.23849  20429386.8224   20429390.6854   20429386.6274
       243.0004        201.0004
  -6449879.10049  -4991510.03449  23460644.8824   23460647.9254   23460644.7594
       220.0004        159.0004
 -14688943.58749 -11428638.73249  20260352.5604   20260358.5494   20260352.1994
       246.0004        211.0004
  -5247116.10049  -3694322.98149  22719091.9504   22719095.5344   22719091.5084
       224.0004        164.0004
 -21772848.68049 -16685344.93249  20251972.0964   20251974.3334   20251972.1114
       238.0004        199.0004
 -18797849.40049 -14073879.71749  21291877.6054   21291881.4624   21291877.4324
       236.0004        189.0004
 11 10  9 18 12 30.0000000  0  8G17G28G32G19G01G14G11G20
  -6427877.01249  -4991601.79349  23714990.7114   23714996.2754   23714991.6024
       216.0004        156.0004
  -6096196.24949  -4737574.69149  23740607.9044   23740609.4784   23740607.5244
       214.0004        145.0004
 -21500526.17649 -16737510.84849  20426854.4174   20426858.2814   20426854.7724
       243.0004        201.0004
  -6342994.68849  -4908223.51349  23480984.5114   23480987.2474   23480983.0784
       219.0004        159.0004
 -14707005.19649 -11442712.69649  20256916.1084   20256921.4364   20256915.7994
       246.0004        211.0004
  -5198457.78249  -3656407.38449  22728351.8634   22728353.1804   22728351.6834
       225.0004        164.0004
 -21741072.50449 -16660584.28049  20258019.4604   20258021.0184   20258019.1354
       238.0004        199.0004
 -18869683.36849 -14129854.21349  21278209.0044   21278211.5874   21278208.5264
       236.0004        188.0004
 11 10  9 18 13  0.0000000  0  8G17G28G32G19G01G14G11G20
  -6522228.85649  -5065122.68349  23697037.8034   23697041.7454   23697037.6924
       219.0004        159.0004
  -6053256.03749  -4704114.82249  23748779.2944   23748782.8364   23748779.1044
       214.0004        145.0004
 -21513353.62949 -16747506.21849  20424414.5084   20424417.1724   20424414.0204
       244.0004        201.0004
  -6235930.34049  -4824796.82849  23501357.5074   23501360.3974   23501356.8294
       217.0004        160.0004
 -14724663.09349 -11456472.08249  20253555.2254   20253560.8654   20253555.4424
       245.0004        211.0004
  -5149275.34449  -3618083.36249  22737710.7374   22737711.9044   22737710.1564
       225.0004        164.0004
 -21708825.51249 -16635456.76049  20264155.9754   20264157.5484   20264155.9104
       239.0004        200.0004
 -18941156.84249 -14185547.79749  21264608.2664   21264610.9554   21264608.2244
       237.0004        189.0004
 11 10  9 18 13 30.0000000  0  8G17G28G32G19G01G14G11G20
  -6616311.86149  -5138434.06549  23679134.2094   23679138.7834   23679134.5014
       218.0004        162.0004
  -6009862.97249  -4670302.03649  23757035.7284   23757039.1454   23757034.3514
       209.0004        142.0004
 -21525703.25249 -16757129.26049  20422063.8384   20422067.1694   20422063.2154
       243.0004        202.0004
  -6128689.03549  -4741232.21649  23521765.5404   23521767.8834   23521764.1304
       219.0004        159.0004
 -14741917.25449 -11469916.86349  20250271.2624   20250277.6244   20250271.3324
       245.0004        211.0004
  -5099571.30949  -3579352.90249  22747168.9254   22747171.1334   22747168.5564
       225.0004        164.0004
 -21676108.96149 -16609963.35949  20270381.6794   20270383.3444   20270381.5064
       238.0004        200.0004
 -19012270.06449 -14240960.65649  21251075.3964   21251078.5284   21251075.1144
       237.0004        189.0004
 11 10  9 18 14  0.0000000  0  8G17G28G32G19G01G14G11G20
  -6710123.52249  -5211534.02849  23661282.1144   23661285.8344   23661282.4534
       216.0004        159.0004
  -5966019.16649  -4636138.09749  23765377.1874   23765381.5664   23765377.6044
       210.0004        142.0004
 -21537576.02949 -16766380.75749  20419804.0574   20419807.9124   20419804.0644
       242.0004        201.0004
  -6021273.18749  -4657531.60749  23542206.2134   23542206.9064   23542205.5924
       218.0004        157.0004
 -14758767.16849 -11483046.66049  20247065.6234   20247071.4684   20247065.6584
       246.0004        211.0004
  -5049347.82749  -3540217.70849  22756726.7634   22756729.2804   22756725.8604
       225.0004        164.0004
 -21642923.52949 -16584104.57549  20276696.1884   20276698.2884   20276696.2614
       237.0004        200.0004
 -19083021.69549 -14296091.76049  21237610.3754   21237614.9434   21237610.9124
       235.0004        188.0004
 11 10  9 18 14 30.0000000  0  8G17G28G32G19G01G14G11G20
  -6803661.25949  -5284420.56149  23643483.9694   23643486.1654   23643483.5874
       216.0004        157.0004
  -5921726.46149  -4601624.32849  23773810.2184   23773809.8904   23773808.6604
       214.0004        143.0004
 -21548972.05349 -16775260.75049  20417637.4644   20417639.3784   20417636.0484
       244.0004        202.0004
  -5913684.78449  -4573696.50049  23562680.4094   23562682.7134   23562679.5124
       219.0004        158.0004
 -14775211.73249 -11495860.59549  20243936.8574   20243941.9034   20243936.5794
       246.0004        211.0004
  -4998606.32549  -3500678.86049  22766382.1584   22766384.2804   22766381.2714
       225.0004        164.0004
 -21609269.28649 -16557880.49549  20283100.4054   20283102.8094   20283100.7864
       238.0004        199.0004
 -19153410.72849 -14350940.33649  21224216.7024   21224219.4914   21224216.5084
       237.0004        189.0004
 11 10  9 18 15  0.0000000  0  8G17G28G32G19G01G14G11G20
  -6896921.62349  -5357090.95449  23625737.2764   23625739.0374   23625737.3834
       219.0004        156.0004
  -5876986.04049  -4566761.70949  23782321.0474   23782323.7584   23782321.4204
       214.0004        145.0004
 -21559891.03449 -16783769.02749  20415557.9194   20415561.4684   20415557.7134
       243.0004        202.0004
  -5805925.14449  -4489728.00949  23583186.8754   23583187.7924   23583185.2844
       221.0004        160.0004
 -14791249.45349 -11508357.50349  20240883.4864   20240890.2544   20240883.7474
       244.0004        211.0004
  -4947347.84049  -3460737.18349  22776135.6984   22776139.2884   22776136.6894
       223.0004        163.0004
 -21575146.03349 -16531290.95349  20289594.0124   20289596.3554   20289593.8174
       239.0004        200.0004
 -19223435.40949 -14405504.99349  21210891.8804   21210894.1714   21210891.3744
       236.0004        189.0004
 11 10  9 18 15 30.0000000  0  8G17G28G32G19G01G14G11G20
  -6989903.06949  -5429544.02149  23608041.7804   23608044.8254   23608043.1254
       220.0004        158.0004
  -5831801.07549  -4531552.64849  23790920.0494   23790923.6984   23790919.5744
       212.0004        143.0004
 -21570334.55049 -16791906.81849  20413571.6224   20413574.0934   20413571.0374
       244.0004        202.0004
  -5697997.33649  -4405628.48049  23603721.8144   23603725.1964   23603722.9584
       217.0004        158.0004
 -14806880.55549 -11520537.56849  20237909.5324   20237915.8254   20237909.3754
       246.0004        211.0004
  -4895575.31749  -3420394.95949  22785988.5584   22785990.5754   22785988.3304
       225.0004        163.0004
 -21540555.31249 -16504337.15149  20296176.5694   20296178.3864   20296176.1294
       238.0004        199.0004
 -19293095.53749 -14459785.53649  21197636.1654   21197638.5494   21197635.4094
       238.0004        189.0004
 11 10  9 18 16  0.0000000  0  8G17G28G32G19G01G14G11G20
  -7082602.88449  -5501777.62749  23590400.7444   23590404.5894   23590402.8974
       218.0004        161.0004
  -5786173.44749  -4495998.72249  23799603.2704   23799606.5934   23799603.2984
       209.0004        143.0004
 -21580303.10949 -16799674.51049  20411674.3064   20411677.2234   20411673.6074
       244.0004        202.0004
  -5589903.54049  -4321399.57249  23624293.2944   23624295.9804   23624292.8514
       221.0004        159.0004
 -14822104.16249 -11532400.11749  20235013.2544   20235018.7214   20235012.8704
       246.0004        211.0004
  -4843290.30649  -3379653.38549  22795938.0164   22795939.7704   22795937.7264
       224.0004        163.0004
 -21505497.93149 -16477019.70849  20302847.3954   20302849.6894   20302847.4814
       238.0004        199.0004
 -19362390.21149 -14513781.34849  21184448.8564   21184452.0094   21184448.5974
       235.0004        189.0004
 11 10  9 18 16 30.0000000  0  8G17G28G32G19G01G14G11G20
  -7175018.15049  -5573789.49049  23572815.3664   23572819.3484   23572816.8344
       216.0004        160.0004
  -5740104.55749  -4460100.93049  23808369.6234   23808371.9584   23808369.5714
       209.0004        143.0004
 -21589796.78349 -16807072.16949  20409866.6874   20409870.7914   20409867.2154
       243.0004        202.0004
  -5481645.61849  -4237042.78449  23644895.5114   23644897.7494   23644894.7654
       222.0004        160.0004
 -14836919.10549 -11543944.21749  20232193.6444   20232199.4524   20232193.8104
       246.0004        211.0004
  -4790494.10749  -3338513.48449  22805984.2214   22805986.2944   22805984.0194
       223.0004        161.0004
 -21469973.42849 -16449338.28149  20309607.2784   20309609.7814   20309607.4624
       238.0004        199.0004
 -19431318.05149 -14567491.33249  21171332.9254   21171335.9394   21171333.0574
       237.0004        190.0004
 11 10  9 18 17  0.0000000  0  8G17G28G32G19G01G14G11G20
  -7267146.18849  -5645577.51749  23555285.8474   23555288.1784   23555284.4384
       217.0004        158.0004
  -5693596.62849  -4423861.01949  23817218.1804   23817220.4384   23817218.5424
       209.0004        139.0004
 -21598816.04949 -16814100.16349  20408151.5404   20408154.4854   20408150.6544
       244.0004        201.0004
  -5373225.58749  -4152559.71349  23665527.2444   23665526.9234   23665525.6234
       219.0004        156.0004
 -14851324.54549 -11555169.21949  20229452.3334   20229458.1774   20229452.2704
       245.0004        211.0004
  -4737188.77049  -3296976.81349  22816127.7504   22816130.1264   22816127.3864
       223.0004        160.0004
 -21433982.49749 -16421293.39449  20316456.1654   20316458.6444   20316456.1094
       238.0004        199.0004
 -19499877.78549 -14620914.44649  21158287.5184   21158289.3624   21158286.3824
       238.0004        190.0004
 11 10  9 18 17 30.0000000  0  9G23G17G28G32G19G01G14G11G20
   -337409.39049   -235487.68149  25340127.5374
       204.0004        108.0004
  -7358984.96749  -5717140.17549  23537807.0544   23537810.6354   23537809.1754
       216.0004        156.0004
  -5646652.48149  -4387281.19349  23826154.2754   23826153.7964   23826154.1344
       213.0004        141.0004
 -21607362.04049 -16820759.37249  20406524.9274   20406528.0164   20406524.2284
       244.0004        202.0004
  -5264646.11149  -4067952.37249  23686188.4384   23686190.2974   23686186.6414
       220.0004        157.0004
 -14865320.23549 -11566074.94149  20226788.7614   20226794.9824   20226789.2124
       246.0004        211.0004
  -4683376.70849  -3255045.33749  22826367.3804   22826370.4384   22826367.1554
       222.0004        162.0004
 -21397526.21249 -16392885.90249  20323394.0464   20323395.8114   20323393.5824
       239.0004        199.0004
 -19568068.97949 -14674050.37949  21145310.2794   21145313.0304   21145309.5294
       238.0004        190.0004
 11 10  9 18 18  0.0000000  0  9G23G17G28G32G19G01G14G11G20
   -450432.15949    -53594.05749  25318617.3684
       208.0004         74.0004
  -7450531.40449  -5788475.02449  23520389.8494   23520390.6034   23520389.0394
       220.0004        157.0004
  -5599273.58149  -4350362.57749  23835169.9054   23835172.1294   23835169.0404
       211.0004        141.0004
 -21615434.81849 -16827049.81449  20404988.7494   20404991.8544   20404988.2444
       243.0004        201.0004
  -5155908.93649  -3983222.13849  23706881.6384   23706880.6514   23706878.6064
       223.0004        156.0004
 -14878905.01449 -11576660.49449  20224204.2624   20224209.7844   20224204.3414
       246.0004        211.0004
  -4629059.20149  -3212720.00149  22836704.8634   22836706.9964   22836705.3964
       223.0004        161.0004
 -21360604.83149 -16364116.00149  20330420.6534   20330421.7514   20330420.3184
       239.0004        200.0004
 -19635890.25649 -14726898.09849  21132403.6584   21132406.6304   21132403.4564
       237.0004        190.0004
 11 10  9 18 18 30.0000000  0  8G17G28G32G19G01G14G11G20
  -7541783.43549  -5859580.50349  23503023.0644   23503026.0504   23503023.9344
       218.0004        159.0004
  -5551462.18749  -4313107.00049  23844264.6624   23844270.8244   23844265.9454
       206.0004        140.0004
 -21623035.36949 -16832972.28449  20403542.2404   20403545.3924   20403541.3164
       243.0004        201.0004
  -5047016.59749  -3898371.00649  23727603.1694   23727603.1254   23727601.7464
       221.0004        157.0004
 -14892078.46449 -11586925.51749  20221696.9024   20221702.9074   20221696.8324
       245.0004        211.0004
  -4574238.60749  -3170002.66449  22847136.9494   22847138.7744   22847137.2004
       224.0004        162.0004
 -21323219.27749 -16334984.41049  20337534.0134   20337536.1334   20337534.2374
       239.0004        200.0004
 -19703341.07649 -14779457.14449  21119568.5784   21119571.5854   21119567.9014
       237.0004        191.0004
 11 10  9 18 19  0.0000000  0  8G17G28G32G19G01G14G11G20
  -7632737.86649  -5930454.04549  23485715.9074   23485718.2294   23485715.3494
       218.0004        159.0004
  -5503220.02649  -4275515.76949  23853449.6044   23853449.8744   23853449.0484
       215.0004        143.0004
 -21630163.65449 -16838526.76549  20402184.7344   20402188.9924   20402184.7404
       242.0004        201.0004
  -4937970.67449  -3813400.21549  23748354.3864   23748354.0274   23748351.7434
       222.0004        155.0004
 -14904839.18349 -11596868.92149  20219268.5984   20219274.6764   20219268.5674
       246.0004        211.0004
  -4518916.09349  -3126894.18449  22857663.3034   22857665.4624   22857663.6044
       223.0004        161.0004
 -21285369.42349 -16305491.01249  20344736.8284   20344738.7014   20344736.5414
       239.0004        199.0004
 -19770419.58749 -14831726.06849  21106804.5614   21106806.5814   21106803.5494
       238.0004        191.0004
 11 10  9 18 19 30.0000000  0  9G23G17G28G32G19G01G14G11G20
    -54423.79449    -24276.06349  25254049.9874
       213.0004         74.0004
  -7723392.78049  -6001094.19249  23468462.3844   23468466.3994   23468463.5974
       214.0004        158.0004
  -5454550.18149  -4237591.23849  23862709.9824   23862712.4054   23862707.5874
       211.0004        143.0004
 -21636821.23149 -16843714.47949  20400919.6104   20400922.2384   20400918.6604
       244.0004        201.0004
  -4828774.27749  -3728312.14149  23769131.4044   23769133.7754   23769131.0684
       218.0004        155.0004
 -14917187.26549 -11606490.78249  20216919.1974   20216925.1084   20216919.2634
       246.0004        211.0004
  -4463094.44549  -3083396.77549  22868285.6024   22868289.1104   22868285.0444
       222.0004        161.0004
 -21247056.69849 -16275636.92649  20352027.6274   20352029.2394   20352027.6644
       239.0004        200.0004
 -19837125.72849 -14883704.84049  21094110.4394   21094113.3494   21094109.8914
       238.0004        192.0004
 11 10  9 18 20  0.0000000  0  9G23G17G28G32G19G01G14G11G20
   -167596.93849   -112458.22049  25232513.3464
       209.0004        108.0004
  -7813745.37949  -6071498.77549  23451269.5724   23451273.0794   23451270.1894
       218.0004        158.0004
  -5405454.25549  -4199334.76049  23872053.2654   23872054.1804   23872052.3804
       215.0004        145.0004
 -21643008.15749 -16848535.44849  20399741.2264   20399744.5614   20399740.5494
       242.0004        201.0004
  -4719428.96049  -3643108.03549  23789938.3284   23789940.7734   23789938.4604
       217.0004        156.0004
 -14929121.55149 -11615790.20649  20214648.2304   20214653.5204   20214647.8874
       245.0004        211.0004
  -4406775.35649  -3039511.76049  22879004.6684   22879005.8564   22879004.1554
       223.0004        161.0004
 -21208281.15349 -16245422.20749  20359406.3764   20359407.9714   20359405.7204
       238.0004        199.0004
 -19903458.36349 -14935392.57549  21081487.6684   21081490.3154   21081486.6754
       238.0004        192.0004
 11 10  9 18 20 30.0000000  0  8G17G28G32G19G01G14G11G20
  -7903792.24449  -6141665.12249  23434134.1454   23434138.3664   23434133.6824
       216.0004        158.0004
  -5355933.97149  -4160747.58749  23881476.6684   23881476.2334   23881475.4034
       216.0004        139.0004
 -21648724.51449 -16852989.74049  20398653.2044   20398656.9814   20398653.0894
       242.0004        201.0004
  -4609936.17849  -3557789.03349  23810774.1584   23810777.4054   23810773.7914
       217.0004        154.0004
 -14940640.76749 -11624766.20149  20212455.8944   20212461.6714   20212455.9404
       246.0004        211.0004
  -4349960.03049  -2995240.07749  22889814.9264   22889816.7974   22889813.1824
       222.0004        160.0004
 -21169042.99849 -16214847.02249  20366873.2614   20366874.9874   20366872.9274
       240.0004        200.0004
 -19969415.85449 -14986787.99849  21068935.8774   21068938.9394   21068935.6314
       238.0004        192.0004
 11 10  9 18 21  0.0000000  0  9G23G17G28G32G19G01G14G11G20
   -394036.45649    -16869.09949  25189419.0994
       214.0004         74.0004
  -7993532.13049  -6211592.26149  23417057.3844   23417059.6134   23417057.4514
       218.0004        156.0004
  -5305992.47549  -4121832.12449  23890976.8044   23890984.4534   23890976.7044
       207.0004        137.0004
 -21653972.19649 -16857078.81849  20397655.3154   20397658.2904   20397654.8924
       243.0004        201.0004
  -4500299.48549  -3472357.92649  23831637.2924   23831640.0304   23831637.1744
       215.0004        152.0004
 -14951745.36949 -11633419.12649  20210342.9724   20210348.7334   20210343.1274
       246.0004        212.0004
  -4292651.64749  -2950584.19349  22900721.2544   22900722.0124   22900720.5054
       225.0004        162.0004
 -21129344.04049 -16183912.76049  20374427.2004   20374429.5704   20374427.2764
       239.0004        199.0004
 -20034998.37149 -15037891.23049  21056455.7704   21056459.0164   21056455.6984
       238.0004        192.0004
 11 10  9 18 21 30.0000000  0  9G23G17G28G32G19G01G14G11G20
   -507298.41949   -105128.48849  25167868.3084
       208.0004        102.0004
  -8082961.64849  -6281277.57549  23400040.9784   23400042.8294   23400040.9664
       221.0004        160.0004
  -5255631.27149  -4082589.68149  23900562.7254   23900565.2644   23900563.3204
       212.0004        142.0004
 -21658751.05149 -16860802.58149  20396745.8054   20396748.8984   20396745.5174
       243.0004        201.0004
  -4390520.34949  -3386815.75949  23852530.3414   23852531.4294   23852528.1404
       219.0004        153.0004
 -14962433.94549 -11641747.88749  20208308.6474   20208314.6394   20208308.8554
       246.0004        211.0004
  -4234851.24849  -2905544.90349  22911719.1424   22911721.4444   22911719.7724
       224.0004        162.0004
 -21089184.52049 -16152619.63549  20382069.2134   20382071.5174   20382069.5174
       239.0004        200.0004
 -20100204.03849 -15088700.80749  21044047.9304   21044050.5454   21044047.6154
       239.0004        192.0004
 11 10  9 18 22  0.0000000  0  8G17G28G32G19G01G14G11G20
  -8172078.26349  -6350719.05349  23383082.1754   23383084.1434   23383081.5874
       220.0004        163.0004
  -5204852.64449  -4043021.99249  23910225.9424   23910227.6154   23910223.3184
       210.0004        142.0004
 -21663061.83849 -16864161.61849  20395926.0694   20395928.5014   20395925.4214
       244.0004        201.0004
  -4280601.01849  -3301164.39349  23873449.8174   23873447.8274   23873445.4774
       219.0004        153.0004
 -14972705.77049 -11649751.90149  20206354.1184   20206359.9834   20206353.8944
       245.0004        211.0004
  -4176561.13349  -2860124.00849  22922812.1314   22922812.6994   22922811.0114
       223.0004        160.0004
 -21048564.78049 -16120967.88849  20389799.8244   20389801.0004   20389799.0414
       240.0004        200.0004
 -20165032.20749 -15139216.22049  21031712.0464   21031714.3974   21031711.4544
       239.0004        193.0004
 11 10  9 18 22 30.0000000  0  9G23G17G28G32G19G01G14G11G20
   -733895.63549     -9595.34849  25124748.4544
       213.0004         74.0004
  -8260879.58849  -6419914.85749  23366182.7164   23366185.7854   23366182.4004
       220.0004        162.0004
  -5153659.10349  -4003130.95449  23919965.6174   23919968.7924   23919965.8714
       209.0004        141.0004
 -21666905.43049 -16867156.61949  20395193.9374   20395197.0044   20395193.2744
       243.0004        201.0004
  -4170543.76149  -3215405.55449  23894391.5844   23894390.8684   23894387.8284
       217.0004        150.0004
 -14982560.25449 -11657430.71549  20204478.8634   20204484.5114   20204478.8124
       246.0004        211.0004
  -4117783.39449  -2814323.16549  22933997.1594   22933999.3334   22933997.0464
       224.0004        160.0004
 -21007485.64849 -16088958.18449  20397615.8784   20397618.6434   20397615.9954
       239.0004        200.0004
 -20229482.00949 -15189436.83449  21019447.0564   21019450.0394   21019446.4614
       238.0004        193.0004
 11 10  9 18 23  0.0000000  0  8G17G28G32G19G01G14G11G20
  -8349363.34549  -6488863.20349  23349345.9104   23349347.3484   23349345.4514
       221.0004        161.0004
  -5102052.81149  -3962918.24849  23929787.4004   23929790.8704   23929784.8174
       208.0004        141.0004
 -21670282.52249 -16869788.10749  20394550.8344   20394554.1454   20394550.5744
       242.0004        201.0004
  -4060350.94149  -3129541.05249  23915360.1674   23915359.0824   23915356.7974
       214.0004        148.0004
 -14991996.85849 -11664783.90449  20202683.5394   20202689.0774   20202683.4614
       246.0004        211.0004
  -4058520.12349  -2768143.98149  22945273.8634   22945276.5814   22945274.5524
       223.0004        161.0004
 -20965947.88649 -16056591.11349  20405519.8264   20405522.7524   20405520.1424
       239.0004        200.0004
 -20293552.77349 -15239362.08949  21007254.3444   21007257.7804   21007254.0444
       238.0004        193.0004
 11 10  9 18 23 30.0000000  0  9G23G17G28G32G19G01G14G11G20
   -960575.01649   -186232.12349  25081609.6654
       208.0004        111.0004
  -8437526.38549  -6557561.66149  23332568.6874   23332570.9854   23332569.4174
       222.0004        161.0004
  -5050035.45049  -3922385.34549  23939686.1484   23939689.0934   23939685.0374
       209.0004        138.0004
 -21673193.43349 -16872056.33349  20393997.9934   20394000.3664   20393996.9844
       243.0004        201.0004
  -3950024.25749  -3043572.25649  23936352.2404   23936355.4204   23936351.8654
       218.0004        152.0004
 -15001014.49349 -11671810.62449  20200966.4534   20200973.3384   20200966.7754
       245.0004        211.0004
  -3998772.87149  -2721587.65149  22956644.6794   22956647.1684   22956644.0474
       223.0004        160.0004
 -20923951.78649 -16023866.89549  20413512.1454   20413514.3084   20413511.9444
       241.0004        200.0004
 -20357242.70549 -15288990.57749  20995134.6744   20995137.7404   20995134.3154
       238.0004        193.0004
 11 10  9 18 24  0.0000000  0  9G23G17G28G32G19G01G14G11G20
  -1073939.60449     -3695.45849  25060041.4774
       216.0004         74.0004
  -8525366.51849  -6626008.49349  23315852.2484   23315854.9564   23315853.5974
       219.0004        160.0004
  -4997610.33549  -3881534.66249  23949662.7254   23949662.6624   23949664.9324
       211.0004        139.0004
 -21675639.56649 -16873962.38549  20393532.0984   20393535.0734   20393531.5934
       242.0004        201.0004
  -3839566.27549  -2957501.17449  23957370.4474   23957373.8014   23957371.4654
       214.0004        152.0004
 -15009612.87949 -11678510.65649  20199330.8964   20199336.6774   20199330.5304
       245.0004        211.0004
  -3938544.22349  -2674656.21749  22968104.4214   22968106.7024   22968105.0644
       222.0004        157.0004
 -20881498.59949 -15990786.49249  20421591.1774   20421592.7064   20421590.8694
       240.0004        200.0004
 -20420552.13449 -15338322.55949  20983088.3034   20983090.1124   20983087.3664
       241.0004        192.0004
 11 10  9 18 24 30.0000000  0  8G17G28G32G19G01G14G11G20
  -8612880.38749  -6694201.08549  23299200.3204   23299202.4964   23299199.2404
       223.0004        165.0004
  -4944779.14649  -3840367.44749  23959714.4004   23959719.2554   23959712.5214
       210.0004        142.0004
 -21677620.96749 -16875506.31549  20393154.8984   20393158.2964   20393154.6214
       243.0004        201.0004
  -3728978.76949  -2871329.14049  23978414.5994   23978417.2414   23978415.4014
       213.0004        151.0004
 -15017790.98049 -11684883.20449  20197775.4164   20197780.7234   20197775.0134
       247.0004        211.0004
  -3877835.96949  -2627351.08049  22979658.7254   22979661.1324   22979658.5094
       225.0004        161.0004
 -20838588.52149 -15957350.06549  20429755.3124   20429758.2634   20429755.8094
       239.0004        199.0004
 -20483479.44549 -15387356.80849  20971112.9544   20971115.8084   20971112.2434
       239.0004        193.0004
 11 10  9 18 25  0.0000000  0  9G23G17G28G32G19G01G14G11G20
  -1300708.61849   -180399.65749  25016883.1804
       204.0004        106.0004
  -8700066.56349  -6762138.34949  23282609.8114   23282610.7894   23282610.5274
       224.0004        164.0004
  -4891544.48849  -3798885.98349  23969846.1554   23969848.5114   23969845.5584
       210.0004        139.0004
 -21679139.01249 -16876689.18049  20392866.1684   20392869.2514   20392865.6514
       243.0004        201.0004
  -3618264.51649  -2785058.28049  23999479.9394   23999486.9464   23999481.9454
       208.0004        149.0004
 -15025548.61549 -11690928.11549  20196299.5014   20196304.3764   20196299.0864
       246.0004        211.0004
  -3816650.76949  -2579674.30449  22991299.9204   22991303.0684   22991300.2264
       220.0004        157.0004
 -20795222.78649 -15923558.58949  20438008.6444   20438010.6474   20438008.6514
       241.0004        200.0004
 -20546024.28249 -15436093.02049  20959211.1344   20959214.1744   20959210.7094
       240.0004        193.0004
 11 10  9 18 25 30.0000000  0  8G17G28G32G19G01G14G11G20
  -8786922.55249  -6829818.30749  23266081.5934   23266083.3584   23266081.2904
       223.0004        165.0004
  -4837908.72449  -3757091.90949  23980052.8184   23980053.4114   23980052.6854
       207.0004        138.0004
 -21680194.41049 -16877511.55049  20392664.7714   20392667.9474   20392664.6794
       242.0004        201.0004
  -3507425.81149  -2698690.51849  24020575.0254   24020578.8484   24020573.9714
       212.0004        152.0004
 -15032885.16349 -11696644.89949  20194902.2414   20194908.1954   20194902.1484
       245.0004        211.0004
  -3754990.28049  -2531627.18149  23003033.7894   23003036.1614   23003033.5634
       223.0004        157.0004
 -20751402.17549 -15889412.66049  20446347.2344   20446349.3494   20446347.0654
       240.0004        200.0004
 -20608185.79449 -15484530.53749  20947382.0394   20947384.7334   20947381.7464
       239.0004        194.0004
 11 10  9 18 26  0.0000000  0  8G17G28G32G19G01G14G11G20
  -8873444.71149  -6897238.15849  23249614.8364   23249618.4614   23249616.5664
       222.0004        163.0004
  -4783874.08849  -3714987.02449  23990334.2324   23990337.7834   23990333.0544
       208.0004        139.0004
 -21680787.82949 -16877973.92849  20392552.2164   20392555.1674   20392551.5534
       243.0004        200.0004
  -3396464.53149  -2612227.23549  24041690.8614   24041694.8724   24041691.1214
       216.0004        155.0004
 -15039799.75649 -11702032.89149  20193586.2784   20193592.4144   20193586.3524
       246.0004        211.0004
  -3692856.66349  -2483211.35849  23014858.1294   23014859.7964   23014856.6444
       222.0004        158.0004
 -20707127.32049 -15854912.78149  20454772.4264   20454774.6204   20454772.3684
       240.0004        199.0004
 -20669962.65049 -15532668.32649  20935626.8594   20935629.4074   20935626.0784
       240.0004        194.0004
 11 10  9 18 26 30.0000000  0  9G23G17G28G32G19G01G14G11G20
  -1640926.21649   -173014.38949  24952145.5544
       209.0004        130.0004
  -8959630.97049  -6964396.24849  23233214.6344   23233218.4534   23233214.5814
       224.0004        164.0004
  -4729442.38149  -3672572.76249  24000692.4704   24000695.8974   24000693.4474
       207.0004        141.0004
 -21680919.35749 -16878076.39649  20392526.7754   20392529.9584   20392526.5704
       242.0004        200.0004
  -3285382.35749  -2525669.73249  24062830.2754   24062832.3764   24062827.4264
       214.0004        150.0004
 -15046291.13449 -11707091.10349  20192351.5924   20192357.2714   20192351.4954
       246.0004        211.0004
  -3630251.39449  -2434428.03449  23026769.6924   23026772.9874   23026769.3574
       219.0004        158.0004
 -20662398.21849 -15820058.91949  20463284.4354   20463286.2904   20463284.2524
       240.0004        200.0004
 -20731353.27449 -15580505.15249  20923944.4154   20923947.1894   20923943.8364
       240.0004        194.0004
 11 10  9 18 27  0.0000000  0  9G23G17G28G32G19G01G14G11G20
  -1754339.76349   -261388.51449  24930562.7684   24930571.7414
       207.0004        128.0004
  -9045478.90049  -7031290.73849  23216879.7304   23216881.3554   23216880.0194
       224.0004        165.0004
  -4674616.59349  -3629851.42249  24011123.7914   24011126.9194   24011124.7154
       206.0004        136.0004
 -21680590.64849 -16877820.24149  20392589.3494   20392592.6214   20392589.5924
       242.0004        200.0004
  -3174181.99749  -2439020.13749  24083990.8174   24083992.9164   24083989.9384
       218.0004        151.0004
 -15052359.38249 -11711819.59449  20191196.8014   20191202.4094   20191196.6274
       245.0004        211.0004
  -3567177.37249  -2385279.43649  23038774.5284   23038775.1964   23038773.3584
       222.0004        158.0004
 -20617216.73649 -15784852.56049  20471881.9314   20471883.7784   20471881.8064
       240.0004        200.0004
 -20792358.17149 -15628041.40249  20912335.2334   20912337.6634   20912334.6924
       240.0004        195.0004
 11 10  9 18 27 30.0000000  0  9G23G17G28G32G19G01G14G11G20
  -1867753.21149   -349762.44449  24908977.1124   24908979.1914   24908976.8424
       203.0004        133.0004
  -9130985.68149  -7097919.36749  23200607.6234   23200610.5034   23200608.5974
       221.0004        165.0004
  -4619398.68549  -3586824.48049  24021633.1244   24021631.6414   24021634.1054
       209.0004        134.0004
 -21679801.97549 -16877205.68249  20392740.3624   20392742.4684   20392739.2874
       243.0004        200.0004
  -3062865.53549  -2352280.06949  24105173.9994   24105177.8404   24105172.5754
       216.0004        152.0004
 -15058003.45249 -11716217.54449  20190122.0154   20190128.2204   20190122.0024
       245.0004        211.0004
  -3503636.34949  -2335766.92749  23050865.3294   23050867.5064   23050865.4534
       220.0004        157.0004
 -20571582.90749 -15749293.72449  20480565.7574   20480567.8174   20480565.8294
       240.0004        199.0004
 -20852975.83849 -15675275.92149  20900800.2364   20900802.7174   20900799.4684
       240.0004        194.0004
 11 10  9 18 28  0.0000000  0  9G23G17G28G32G19G01G14G11G20
  -1981164.36449   -438134.45649  24887396.1074   24887402.7664   24887394.9174
       200.0004        133.0004
  -9216148.96749  -7164280.31849  23184401.7034   23184404.2194   23184399.9494
       220.0004        163.0004
  -4563791.31849  -3543494.02349  24032214.5884   24032217.8664   24032214.0624
       210.0004        140.0004
 -21678554.41549 -16876233.53649  20392976.6874   20392980.1794   20392976.1414
       242.0004        200.0004
  -2951435.49049  -2265451.54449  24126377.6844   24126380.0354   24126377.3234
       216.0004        152.0004
 -15063223.05849 -11720284.76249  20189129.2504   20189134.8534   20189129.3184
       246.0004        211.0004
  -3439630.69049  -2285892.37349  23063044.5084   23063047.5344   23063044.9404
       220.0004        157.0004
 -20525497.93749 -15713383.37549  20489335.6704   20489337.5854   20489335.6754
       241.0004        199.0004
 -20913205.81349 -15722208.34749  20889338.6774   20889341.0544   20889338.2374
       241.0004        195.0004
 11 10  9 18 28 30.0000000  0  9G23G17G28G32G19G01G14G11G20
  -2094570.90049   -526503.08049  24865819.1744   24865824.7524   24865819.5244
       210.0004        130.0004
  -9300966.03349  -7230371.51549  23168260.4034   23168262.8334   23168261.3364
       222.0004        164.0004
  -4507796.91449  -3499862.07149  24042868.7854   24042871.8534   24042869.5964
       206.0004        136.0004
 -21676848.76849 -16874904.45049  20393301.1104   20393304.9024   20393301.5324
       242.0004        201.0004
  -2839893.63049  -2178535.82649  24147604.6674   24147606.3954   24147602.8814
       216.0004        148.0004
 -15068017.36449 -11724020.57649  20188217.1954   20188222.4744   20188217.0674
       246.0004        211.0004
  -3375162.27449  -2235657.22549  23075312.3804   23075315.2864   23075313.6504
       219.0004        155.0004
 -20478962.47949 -15677121.99549  20498190.8254   20498192.6654   20498190.8634
       241.0004        199.0004
 -20973047.04749 -15768837.85549  20877951.4034   20877953.9824   20877951.0664
