     2.11           OBSERVATION DATA    G (GPS)             RINEX VERSION / TYPE
teqc  2013Mar15     gpsops              20150519 14:49:11UTCPGM / RUN BY / DATE
    30.0000                                                 INTERVAL
     1     1                                                WAVELENGTH FACT L1/2
     7    L1    L2    P1    P2    C1    S1    S2            # / TYPES OF OBSERV
Linux 2.4.21-27.ELsmp|Opteron|gcc -static|Linux x86_64|=+   COMMENT
     2.10           OBSERVATION DATA    GPS                 COMMENT
soc2rnx ver 1.20    gpsops              19-May-2015 14:49:10COMMENT
S1, if present, is the SNR for the C/A data stream on L1.   COMMENT
 SNR is mapped to RINEX snr flag value [1,4-9]              COMMENT
    SNR:   >316  >100  >31.6  >10  >3.2    >0 bad=0         COMMENT
L1 & L2:      9     8     7     6     5     4     1         COMMENT
GGN                 Changchun Observatory,NAOC,CAS          OBSERVER / AGENCY
CR6200503027        ASH701945E_M    NONE                    ANT # / TYPE
 -2674431.9143  3757145.2969  4391528.8732                  APPROX POSITION XYZ
        0.2500        0.0000        0.0000                  ANTENNA: DELTA H/E/N
UC2200511014        ASHTECH UZ-12       CQ00                REC # / TYPE / VERS
CHAN                                                        MARKER NAME
21611M002                                                   MARKER NUMBER
                                                            COMMENT
Forced Modulo Decimation to 30 seconds                      COMMENT
  2015     5     1     0     0    0.0000000     GPS         TIME OF FIRST OBS
                                                            END OF HEADER
 15  5  1  0  0  0.0000000  0  7G12G22G24G14G15G21G18
 120520129.22247  93911752.19547  22934246.5044   22934253.2644   22934246.4534
        49.000          43.000
 114805988.26247  89459197.06547  21846864.1214   21846867.5134   21846864.8634
        53.000          48.000
 106667924.32947  83117840.90047  20298247.6284   20298254.5864   20298246.9084
        56.000          52.000
 123805046.05547  96471439.86147  23559336.2974   23559342.5654   23559336.6374
        45.000          40.000
 117444803.57047  91515414.93547  22349015.2344   22349020.3324   22349014.8784
        52.000          46.000
 123711793.89547  96398777.03147  23541590.3174   23541594.4004   23541591.2144
        44.000          38.000
 107578640.29447  83827490.92947  20471552.1204   20471555.9894   20471552.1094
        55.000          50.000
 15  5  1  0  0 30.0000000  0  7G12G22G24G14G15G21G18
 120423033.80047  93836093.50847  22915770.1274   22915776.2714   22915769.5074
        48.000          43.000
 114734450.34247  89403453.26647  21833250.6014   21833253.9924   21833251.2504
        53.000          47.000
 106691124.05147  83135918.61147  20302662.4324   20302669.4014   20302661.7894
        56.000          52.000
 123727466.34547  96410988.18147  23544573.5924   23544580.6544   23544573.8064
        46.000          41.000
 117518892.80047  91573146.76447  22363113.3354   22363119.2734   22363112.5864
        51.000          46.000
 123796781.16647  96465000.82747  23557762.8184   23557767.6954   23557762.6044
        43.000          37.000
 107561331.43747  83814003.50347  20468258.2314   20468262.3414   20468258.6614
        55.000          50.000
 15  5  1  0  1  0.0000000  0  7G12G22G24G14G15G21G18
 120326214.30947  93760649.83947  22897345.7364   22897352.0634   22897345.0844
        48.000          43.000
 114663250.49847  89347972.89447  21819701.5634   21819704.7914   21819701.9454
        53.000          47.000
 106714835.39747  83154394.98447  20307174.6424   20307181.4514   20307174.0634
        56.000          52.000
 123649989.35147  96350616.54647  23529830.7394   23529837.3494   23529830.5194
        46.000          41.000
 117593160.78147  91631017.87247  22377246.2734   22377251.9954   22377245.7954
        52.000          46.000
 123881961.20847  96531374.85047  23573972.0704   23573976.8764   23573971.7734
        43.000          37.000
 107544511.76847  83800897.26047  20465057.4084   20465061.5924   20465057.7154
        54.000          50.000
 15  5  1  0  1 30.0000000  0  7G12G22G24G14G15G21G18
 120229652.23247  93685406.74147  22878970.8564   22878977.3134   22878970.5114
        50.000          43.000
 114592368.66847  89292740.33247  21806213.2754   21806216.9314   21806213.9134
        53.000          48.000
 106739034.24647  83173251.22247  20311779.6854   20311786.2044   20311779.1814
        56.000          52.000
 123572593.00547  96290307.73547  23515101.9334   23515108.6584   23515102.0784
        45.000          40.000
 117667584.61747  91689010.42847  22391408.7614   22391414.7744   22391408.2624
        51.000          46.000
 123967308.95747  96597879.51847  23590213.1154   23590218.3214   23590214.2524
        42.000          37.000
 107528160.19447  83788155.76247  20461945.7184   20461949.9914   20461946.0014
        55.000          50.000
 15  5  1  0  2  0.0000000  0  7G12G22G24G14G15G21G18
 120133353.63147  93610368.94047  22860645.8044   22860652.4864   22860645.7764
        48.000          43.000
 114521809.91047  89237759.51447  21792786.1764   21792789.9404   21792786.8864
        53.000          47.000
 106763722.09947  83192488.50147  20316477.6514   20316483.9614   20316477.1094
        56.000          52.000
 123495280.24347  96230064.05047  23500389.2884   23500396.1794   23500389.4214
        45.000          40.000
 117742166.72847  91747126.29947  22405601.2114   22405607.3774   22405600.7204
        51.000          46.000
 124052824.34147  96664514.84947  23606485.8184   23606491.1274   23606485.2164
        43.000          37.000
 107512281.10947  83775782.44247  20458924.0864   20458928.4844   20458924.3554
        54.000          50.000
 15  5  1  0  2 30.0000000  0  7G12G22G24G14G15G21G18
 120037340.91947  93535553.89047  22842374.8444   22842381.4594   22842374.3324
        48.000          43.000
 114451595.22847  89183046.80947  21779424.7034   21779428.4994   21779425.4914
        53.000          47.000
 106788916.50647  83212120.49447  20321271.9444   20321278.3954   20321271.2624
        56.000          52.000
 123418071.01647  96169901.05347  23485697.2894   23485703.7884   23485697.0354
        46.000          40.000
 117816925.29347  91805379.67747  22419827.5174   22419833.1884   22419826.8574
        51.000          46.000
 124138523.65647  96731293.47747  23622793.6934   23622799.6264   23622793.8864
        45.000          37.000
 107496894.26847  83763792.68747  20455996.0524   20456000.5254   20455996.3294
        54.000          50.000
 15  5  1  0  3  0.0000000  0  7G12G22G24G14G15G21G18
 119941597.08947  93460948.35947  22824155.4674   22824162.0834   22824155.3104
        49.000          43.000
 114381706.34547  89128587.95947  21766125.4104   21766128.7384   21766126.4674
        54.000          48.000
 106814595.16747  83232129.82647  20326158.3204   20326165.0724   20326157.7144
        56.000          52.000
 123340944.96647  96109802.88447  23471020.5444   23471027.8844   23471020.4454
        46.000          41.000
 117891839.21847  91863754.11347  22434083.0254   22434088.9544   22434082.3194
        52.000          46.000
 124224382.92547  96798196.73447  23639132.2044   23639138.7444   23639133.9144
        44.000          38.000
 107481980.47147  83752171.53147  20453158.1034   20453162.5044   20453158.5114
        55.000          50.000
 15  5  1  0  3 30.0000000  0  7G12G22G24G14G15G21G18
 119846132.73147  93386560.62147  22805989.1804   22805995.9104   22805988.6944
        48.000          43.000
 114312153.03347  89074390.59047  21752889.7924   21752893.1544   21752890.7254
        53.000          47.000
 106840764.01947  83252521.12547  20331138.1414   20331144.8554   20331137.5394
        56.000          52.000
 123263909.65247  96049775.41247  23456361.6244   23456367.9704   23456361.8834
        46.000          41.000
 117966914.98947  91922254.64947  22448369.7374   22448375.7194   22448369.5384
        52.000          46.000
 124310406.87747  96865228.30747  23655502.4274   23655508.8114   23655502.9164
        44.000          38.000
 107467548.52347  83740925.85047  20450411.7164   20450416.1624   20450412.2584
        55.000          50.000
 15  5  1  0  4  0.0000000  0  7G12G22G24G14G15G21G18
 119750943.75247  93312387.45647  22787875.3114   22787881.9714   22787874.3794
        48.000          44.000
 114242930.08847  89020450.65447  21739716.8444   21739720.3414   21739717.6104
        53.000          47.000
 106867414.73747  83273287.91347  20336209.5134   20336216.4654   20336208.9094
        56.000          52.000
 123186958.15147  95989813.20447  23441718.6144   23441723.9514   23441718.6134
        47.000          41.000
 118042145.03047  91980875.40747  22462685.8414   22462691.3784   22462685.3244
        52.000          46.000
 124396585.27947  96932380.24047  23671901.8104   23671907.6404   23671902.3424
        44.000          38.000
 107453591.98647  83730050.61347  20447755.8284   20447760.2304   20447756.3754
        54.000          50.000
 15  5  1  0  4 30.0000000  0  7G12G22G24G14G15G21G18
 119656051.59347  93238445.59347  22769817.5304   22769824.7804   22769816.8804
        49.000          44.000
 114174057.48647  88966783.71547  21726610.8454   21726614.7644   21726611.5644
        53.000          48.000
 106894563.08847  83294442.46947  20341375.5024   20341382.6594   20341374.6844
        56.000          52.000
 123110108.44747  95929930.34847  23427094.1734   23427099.8374   23427093.9554
        45.000          41.000
 118117546.54147  92039629.77447  22477033.8894   22477039.5934   22477033.6084
        51.000          46.000
 124482933.49147  96999664.49047  23688333.5884   23688339.3864   23688334.9074
        44.000          39.000
 107440129.81347  83719560.59747  20445194.1294   20445198.4084   20445194.4644
        54.000          50.000
 15  5  1  0  5  0.0000000  0  7G12G22G24G14G15G21G18
 119561444.64647  93164725.97547  22751814.8874   22751821.3274   22751814.8554
        49.000          44.000
 114105522.21747  88913379.62647  21713569.1224   21713573.0804   21713569.7584
        53.000          48.000
 106922192.78547  83315972.08847  20346633.6094   20346640.3274   20346633.0224
        56.000          52.000
 123033345.93147  95870115.45147  23412486.9074   23412492.7394   23412486.8094
        46.000          41.000
 118193103.74747  92098505.45147  22491411.9084   22491418.0654   22491411.0814
        51.000          46.000
 124569433.19747  97067066.79747  23704793.9674   23704799.9354   23704794.0694
        45.000          39.000
 107427148.31747  83709445.14047  20442723.9034   20442728.0584   20442724.3304
        55.000          50.000
 15  5  1  0  5 30.0000000  0  7G12G22G24G14G15G21G18
 119467121.34747  93091227.37947  22733865.6074   22733871.9614   22733865.7004
        49.000          44.000
 114037322.14047  88860236.72847  21700591.1524   21700595.0084   21700591.7264
        53.000          48.000
 106950297.33847  83337871.73147  20351981.8164   20351988.2044   20351981.2954
        56.000          52.000
 122956666.23447  95810365.05447  23397895.3714   23397900.8974   23397895.6784
        47.000          41.000
 118268811.70347  92157498.60547  22505818.7154   22505824.9284   22505818.1974
        51.000          46.000
 124656076.95647  97134581.34147  23721281.2834   23721288.0484   23721282.4904
        44.000          39.000
 107414643.84047  83699701.38547  20440344.4684   20440348.6134   20440344.7704
        55.000          50.000
 15  5  1  0  6  0.0000000  0  7G12G22G24G14G15G21G18
 119373109.94747  93017971.82647  22715975.5594   22715981.8844   22715975.1814
        49.000          43.000
 113969483.79947  88807375.70547  21687681.7214   21687685.6964   21687682.3514
        53.000          48.000
 106978899.73447  83360159.30247  20357424.5504   20357431.0194   20357423.9024
        56.000          52.000
 122880094.51347  95750698.82647  23383324.1464   23383329.9204   23383324.2764
        46.000          41.000
 118344694.17547  92216627.73747  22520258.6134   22520264.6974   22520258.0294
        51.000          46.000
 124742886.18147  97202224.84147  23737800.6774   23737807.2304   23737801.7204
        44.000          39.000
 107402641.92847  83690349.24247  20438060.6464   20438064.7024   20438061.2624
        55.000          50.000
 15  5  1  0  6 30.0000000  0  7G12G22G24G14G15G21G18
 119279380.97247  92944936.33747  22698139.6944   22698145.6384   22698139.3464
        49.000          44.000
 113901976.85247  88754772.91247  21674835.6144   21674839.2104   21674836.3444
        53.000          48.000
 107007966.12347  83382808.42347  20362955.7154   20362962.3064   20362955.1264
        56.000          52.000
 122803598.17747  95691091.31247  23368766.9214   23368773.4594   23368767.1554
        46.000          41.000
 118420717.99247  92275867.01147  22534726.0024   22534731.7494   22534725.7534
        51.000          46.000
 124829825.54847  97269969.74047  23754345.1504   23754351.1104   23754346.2944
        44.000          39.000
 107391111.47947  83681364.47047  20435866.2734   20435870.6294   20435866.8414
        54.000          50.000
 15  5  1  0  7  0.0000000  0  7G12G22G24G14G15G21G18
 119185966.78447  92872146.15447  22680363.5334   22680369.5524   22680363.3474
        49.000          44.000
 113834832.90447  88702452.97547  21662058.5184   21662062.1544   21662059.1994
        54.000          48.000
 107037523.48347  83405840.12247  20368580.3134   20368586.8894   20368579.8084
        56.000          52.000
 122727206.98147  95631565.75547  23354229.4954   23354236.7194   23354230.0114
        45.000          41.000
 118496912.03047  92335238.91747  22549225.3294   22549231.1634   22549225.2204
        51.000          46.000
 124916921.64547  97337836.75947  23770918.9364   23770924.7884   23770919.9204
        43.000          38.000
 107380082.60847  83672770.53247  20433767.5954   20433771.9744   20433768.0354
        54.000          50.000
 15  5  1  0  7 30.0000000  0  7G12G22G24G14G15G21G18
 119092850.02547  92799587.73047  22662644.0104   22662650.4374   22662643.4234
        50.000          44.000
 113768032.87247  88650401.02847  21649347.1674   21649350.5594   21649347.9514
        54.000          48.000
 107067549.94747  83429237.36347  20374293.9984   20374300.8064   20374293.4844
        56.000          52.000
 122650900.32947  95572106.05447  23339709.3244   23339715.7474   23339709.2864
        47.000          41.000
 118573254.54347  92394726.52447  22563752.5934   22563758.7864   22563752.1614
        51.000          46.000
 125004150.55647  97405807.27847  23787518.2114   23787523.8884   23787518.2514
        43.000          38.000
 107369535.56547  83664552.05347  20431760.6084   20431765.0124   20431761.0454
        54.000          50.000
 15  5  1  0  8  0.0000000  0  7G12G22G24G14G15G21G18
 119000046.88047  92727273.69347  22644983.7504   22644990.4404   22644983.0894
        49.000          44.000
 113701592.29447  88598629.17547  21636703.9464   21636707.3594   21636704.5544
        54.000          48.000
 107098056.60847  83453008.77947  20380099.3244   20380106.1154   20380098.6174
        56.000          52.000
 122574691.50447  95512722.57347  23325207.5934   23325213.5374   23325208.1624
        47.000          41.000
 118649758.03747  92454339.58747  22578310.8864   22578316.5974   22578310.1444
        50.000          46.000
 125091522.23647  97473889.03947  23804144.3144   23804150.0374   23804145.1264
        42.000          37.000
 107359484.30247  83656719.89747  20429847.8474   20429852.3044   20429848.3024
        54.000          50.000
 15  5  1  0  8 30.0000000  0  7G12G22G24G14G15G21G18
 118907558.78147  92655205.13647  22627383.4254   22627390.1124   22627382.9104
        49.000          44.000
 113635511.07747  88547137.34647  21624128.8894   21624132.4974   21624129.4134
        53.000          48.000
 107129039.62547  83477151.38147  20385995.2544   20386002.1474   20385994.6204
        56.000          52.000
 122498578.90747  95453414.11047  23310723.3954   23310730.0874   23310723.5734
        47.000          41.000
 118726419.69347  92514075.88047  22592898.9694   22592905.1254   22592898.3494
        50.000          45.000
 125179031.65247  97542078.12947  23820796.2994   23820802.9494   23820797.0284
        43.000          37.000
 107349927.61247  83649273.11847  20428029.3044   20428033.7254   20428029.7904
        54.000          50.000
 15  5  1  0  9  0.0000000  0  8G12G25G22G24G14G15G21G18
 118815380.93847  92583378.33647  22609843.2134   22609848.8264   22609842.4134
        49.000          44.000
 139805898.56557  91147401.50057  24701280.8365   24701293.6485   24701282.4965
        41.000          36.000
 113569783.18947  88495920.84547  21611621.1324   21611624.8044   21611621.6964
        53.000          48.000
 107160489.80447  83501658.00847  20391980.2194   20391986.8454   20391979.6524
        56.000          52.000
 122422554.56547  95394174.39547  23296256.6924   23296262.9034   23296256.8234
        46.000          41.000
 118803230.85447  92573928.66547  22607515.7714   22607521.9494   22607515.3284
        51.000          46.000
 125266668.00347  97610366.14947  23837473.4644   23837479.4614   23837473.5624
        40.000          36.000
 107340858.38347  83642206.17847  20426303.5444   20426307.9504   20426304.1604
        54.000          50.000
 15  5  1  0  9 30.0000000  0  8G12G25G22G24G14G15G21G18
 118723527.70047  92511804.48147  22592364.1304   22592369.9904   22592364.0684
        49.000          44.000
 119691464.55557 111058236.19657  24679502.1045   24679514.0205   24679502.7495
        41.000          36.000
 113504422.10347  88444990.15847  21599183.0834   21599186.9294   21599183.6264
        53.000          48.000
 107192415.91947  83526535.48447  20398055.6724   20398061.9564   20398055.0364
        56.000          52.000
 122346629.91647  95335012.36747  23281808.8004   23281815.0104   23281808.8104
        46.000          41.000
 118880201.95847  92633906.08247  22622162.9304   22622168.9224   22622162.6114
        50.000          45.000
 125354439.35147  97678759.31047  23854175.3654   23854181.9284   23854174.7894
        41.000          35.000
 107332288.52147  83635528.35047  20424672.7044   20424677.1844   20424673.0544
        54.000          50.000
 15  5  1  0 10  0.0000000  0  8G12G25G22G24G14G15G21G18
 118631988.14347  92440475.04047  22574944.3284   22574950.8754   22574943.9384
        50.000          44.000
 139577004.34957  90969049.69457  24657717.5855   24657728.4125   24657715.7295
        42.000          36.000
 113439415.71147  88394335.85747  21586813.0134   21586816.6154   21586813.5144
        53.000          48.000
 107224802.68547  83551771.90947  20404218.2944   20404225.1214   20404217.5834
        56.000          52.000
 122270791.47047  95275917.51647  23267376.7384   23267383.1304   23267376.8674
        47.000          41.000
 118957318.48247  92693996.81447  22636837.5344   22636843.8034   22636837.1654
        51.000          45.000
 125442328.58947  97747244.34747  23870900.4464   23870906.4254   23870900.3074
        40.000          35.000
 107324205.24647  83629229.68647  20423134.3604   20423138.9244   20423134.7104
        54.000          50.000
 15  5  1  0 10 30.0000000  0  8G12G25G22G24G14G15G21G18
 118540781.56547  92369405.05847  22557588.2014   22557594.7744   22557588.3054
        50.000          44.000
 119462481.74857 110879808.62157  24635926.3815   24635939.1875   24635925.8725
        41.000          37.000
 113374781.96847  88343971.91547  21574513.7254   21574517.2834   21574514.5024
        54.000          48.000
 107257663.72147  83577377.89147  20410471.4824   20410478.3924   20410470.9284
        56.000          52.000
 122195055.51147  95216902.52247  23252964.8644   23252970.7044   23252965.0034
        47.000          41.000
 119034595.84047  92754212.86747  22651543.4184   22651549.2654   22651542.9834
        50.000          45.000
 125530349.14947  97815831.71547  23887649.5114   23887655.5914   23887650.7594
        39.000          35.000
 107316625.55147  83623323.42047  20421692.0084   20421696.4954   20421692.3364
        54.000          50.000
 15  5  1  0 11  0.0000000  0  8G12G25G22G24G14G15G21G18
 118449899.11347  92298587.65147  22540294.0524   22540300.1334   22540293.8094
        50.000          44.000
 119347950.07747 110790563.43147  24614131.5434   24614143.6624   24614131.2884
        42.000          36.000
 113310510.86547  88293890.56847  21562283.1774   21562287.0224   21562283.8444
        53.000          48.000
 107290985.78847  83603343.12147  20416812.4954   20416819.3654   20416811.7014
        56.000          52.000
 122119410.05147  95157958.03247  23238570.2924   23238576.2464   23238570.5694
        48.000          42.000
 119112020.86147  92814543.98947  22666276.9174   22666282.7694   22666276.3664
        51.000          45.000
 125618485.57047  97884509.35747  23904422.7594   23904426.9154   23904422.3774
        41.000          35.000
 107309537.96347  83617800.60747  20420343.4504   20420347.8564   20420343.8464
        54.000          50.000
 15  5  1  0 11 30.0000000  0  8G12G25G22G24G14G15G21G18
 118359350.04247  92228030.03447  22523062.9714   22523068.8854   22523062.8854
        50.000          44.000
 119233400.29047 110701304.08347  24592333.1264   24592345.2024   24592333.7054
        42.000          37.000
 113246610.78047  88244098.32647  21550123.3704   21550127.1784   21550124.1374
        54.000          48.000
 107324772.62647  83629670.50147  20423241.9274   20423248.7454   20423241.3274
        56.000          52.000
 122043861.20347  95099088.83847  23224193.6974   23224200.2264   23224193.7374
        47.000          42.000
 119189599.24847  92874994.61147  22681039.7224   22681045.2064   22681039.6284
        51.000          45.000
 125706741.17447  97953279.88747  23921217.1794   23921222.0244   23921217.3924
        42.000          35.000
 107302949.48047  83612666.71247  20419089.7444   20419094.2004   20419090.2804
        55.000          50.000
 15  5  1  0 12  0.0000000  0  8G12G25G22G24G14G15G21G18
 118269140.04047  92157736.61347  22505896.0674   22505902.4034   22505895.0844
        49.000          44.000
 119118837.80247 110612034.86147  24570531.9904   24570544.4214   24570532.7154
        42.000          37.000
 113183086.22747  88194598.69547  21538035.1964   21538038.7104   21538035.9184
        54.000          48.000
 107359025.12747  83656360.72747  20429760.0554   20429766.9594   20429759.3834
        56.000          52.000
 121968412.18047  95040297.42247  23209835.6274   23209842.7094   23209835.9484
        47.000          42.000
 119267332.89447  92935566.18647  22695831.6434   22695837.5284   22695831.3744
        51.000          45.000
 125795115.30447  98022142.77047  23938034.4554   23938040.1294   23938034.7164
        42.000          36.000
 107296863.22347  83607924.15747  20417931.5504   20417935.9734   20417932.0694
        54.000          50.000
 15  5  1  0 12 30.0000000  0  8G12G25G22G24G14G15G21G18
 118179267.80547  92087706.38647  22488793.8614   22488800.3344   22488793.2264
        49.000          44.000
 119004260.60147 110522754.14147  24548728.5914   24548741.3244   24548728.4604
        42.000          37.000
 113119934.54947  88145389.62147  21526017.8264   21526021.2784   21526018.6094
        54.000          48.000
 107393737.12547  83683409.01047  20436365.7524   20436372.5414   20436365.1594
        56.000          52.000
 121893058.20047  94981580.08447  23195496.2704   23195503.1844   23195496.2714
        47.000          42.000
 119345216.24647  92996254.43347  22710652.6334   22710658.5794   22710652.4154
        51.000          45.000
 125883600.39447  98091092.13947  23954872.1664   23954877.9984   23954872.3494
        43.000          36.000
 107291275.95847  83603570.43047  20416868.4184   20416872.7914   20416868.6904
        55.000          50.000
 15  5  1  0 13  0.0000000  0  8G12G25G22G24G14G15G21G18
 118089740.25347  92017944.74747  22471757.5354   22471763.7054   22471756.9874
        49.000          44.000
 118889675.37747 110433467.13047  24526924.3304   24526936.3224   24526926.0914
        42.000          37.000
 113057161.69047  88096475.72747  21514072.5924   21514075.8324   21514073.2924
        54.000          48.000
 107428910.52147  83710816.81947  20443058.9694   20443065.8174   20443058.3604
        56.000          52.000
 121817803.57347  94922940.16347  23181176.1334   23181182.5534   23181176.2384
        47.000          42.000
 119423252.86747  93057062.10947  22725502.3894   22725508.5774   22725502.1314
        50.000          45.000
 125972197.06147  98160128.42047  23971731.8184   23971737.8474   23971732.1624
        42.000          36.000
 107286191.59647  83599608.58047  20415900.9774   20415905.2814   20415901.3114
        54.000          50.000
 15  5  1  0 13 30.0000000  0  8G12G25G22G24G14G15G21G18
 118000549.16447  91948445.28147  22454785.3674   22454791.2104   22454785.2264
        50.000          45.000
 118775073.67047 110344167.26047  24505116.3574   24505127.1284   24505117.6054
        42.000          37.000
 112994758.34647  88047849.77347  21502197.5974   21502200.8504   21502198.3414
        54.000          48.000
 107464532.48747  83738574.16847  20449837.7224   20449844.3714   20449837.1414
        56.000          52.000
 121742637.55247  94864369.26947  23166872.4544   23166878.5244   23166872.5314
        47.000          42.000
 119501430.64747  93117979.77547  22740379.2514   22740385.2404   22740378.8634
        51.000          45.000
 126060891.49147  98229240.88347  23988609.8744   23988615.3474   23988609.7814
        43.000          37.000
 107281599.96247  83596030.67247  20415027.1274   20415031.4504   20415027.5384
        55.000          50.000
 15  5  1  0 14  0.0000000  0  8G12G25G22G24G14G15G21G18
 117911716.53747  91879225.15147  22437880.9004   22437887.0084   22437880.9094
        49.000          45.000
 118660476.90647 110254871.24547  24483309.5694   24483319.9274   24483309.4414
        42.000          38.000
 112932745.22947  87999527.88847  21490396.5904   21490400.1254   21490397.1804
        54.000          48.000
 107500619.44047  83766693.85147  20456704.8974   20456711.4804   20456704.2144
        56.000          52.000
 121667578.71947  94805881.92147  23152589.0564   23152595.3164   23152589.0824
        48.000          42.000
 119579767.48547  93179021.39447  22755286.0914   22755292.3644   22755285.6814
        50.000          45.000
 126149699.17147  98298441.57747  24005509.7904   24005515.6344   24005509.7644
        43.000          37.000
 107277520.50947  83592851.86147  20414250.8834   20414255.1904   20414251.1264
        55.000          50.000
 15  5  1  0 14 30.0000000  0  8G12G25G22G24G14G15G21G18
 117823228.16447  91810273.26547  22421041.6304   22421047.7864   22421041.3084
        49.000          45.000
 118545870.38847 110165567.64947  24461500.0534   24461510.6974   24461500.2254
        41.000          38.000
 112871106.90747  87951498.05647  21478667.0974   21478670.9974   21478667.6814
        53.000          48.000
 107537151.92747  83795160.70447  20463656.6604   20463663.5304   20463656.0774
        56.000          52.000
 121592610.37647  94747465.07047  23138323.2294   23138329.6424   23138323.4454
        48.000          42.000
 119658245.54447  93240173.03647  22770220.3464   22770226.5614   22770219.1684
        50.000          45.000
 126238599.80147  98367714.71347  24022426.4714   24022432.4614   24022426.7654
        43.000          37.000
 107273937.00947  83590059.50347  20413568.9984   20413573.2954   20413569.3694
        54.000          50.000
 15  5  1  0 15  0.0000000  0  8G12G25G22G24G14G15G21G18
 117735102.29247  91741603.83447  22404271.9394   22404278.0354   22404271.9584
        50.000          45.000
 118431272.01647 110076270.38347  24439692.6834   24439702.7874   24439693.0814
        42.000          38.000
 112809860.53347  87903773.62847  21467012.4704   21467016.2774   21467013.1044
        54.000          48.000
 107574143.50247  83823985.29147  20470695.8564   20470702.8304   20470695.2604
        56.000          52.000
 121517747.50047  94689130.40747  23124077.5294   23124083.6164   23124077.5214
        48.000          42.000
 119736878.96947  93301445.75347  22785183.6034   22785189.9084   22785182.6964
        50.000          45.000
 126327605.37247  98437069.59747  24039363.5614   24039370.0944   24039364.6574
        43.000          37.000
 107270864.81547  83587665.57147  20412984.3144   20412988.6544   20412984.6814
        54.000          50.000
 15  5  1  0 15 30.0000000  0  8G12G25G22G24G14G15G21G18
 117647336.30047  91673214.84247  22387570.7964   22387576.5864   22387570.9624
        51.000          45.000
 118316679.16847 109986977.45247  24417886.1884   24417896.6194   24417886.8474
        43.000          38.000
 112749002.66147  87856351.93547  21455431.4654   21455435.3924   21455432.0394
        54.000          48.000
 107611586.60247  83853161.71447  20477820.8714   20477827.9284   20477820.2584
        56.000          52.000
 121442984.94647  94630873.90047  23109850.5124   23109856.2844   23109850.8544
        47.000          41.000
 119815661.79647  93362834.89847  22800175.6444   22800181.8014   22800174.5414
        51.000          45.000
 126416707.36947  98506499.63447  24056319.6824   24056325.8004   24056319.6634
        44.000          37.000
 107268299.11447  83585666.29847  20412496.0214   20412500.4364   20412496.2564
        55.000          50.000
 15  5  1  0 16  0.0000000  0  8G12G25G22G24G14G15G21G18
 117559924.91747  91605102.16247  22370937.0954   22370942.5304   22370937.4554
        50.000          45.000
 118202085.91447 109897684.17547  24396079.2014   24396089.9844   24396079.6434
        43.000          38.000
 112688526.67247  87809227.80647  21443923.4114   21443927.0924   21443924.0524
        54.000          49.000
 107649471.31247  83882682.25147  20485030.2814   20485037.1314   20485029.6494
        56.000          52.000
 121368314.37147  94572689.07347  23095640.5584   23095646.6704   23095640.7324
        47.000          42.000
 119894584.73947  93424333.24247  22815194.3084   22815200.2814   22815193.6294
        50.000          45.000
 126505894.28547  98575995.82347  24073291.6314   24073297.6274   24073292.9904
        43.000          37.000
 107266231.61047  83584055.23547  20412102.5574   20412107.0064   20412103.0534
        55.000          50.000
 15  5  1  0 16 30.0000000  0  8G12G25G22G24G14G15G21G18
 117472884.63547  91537278.66047  22354373.4034   22354379.4784   22354373.4724
        50.000          45.000
 118087508.36647 109808403.16447  24374275.7424   24374286.9214   24374275.9544
        42.000          38.000
 112628447.88947  87762413.19547  21432490.8514   21432494.2514   21432491.6674
        54.000          49.000
 107687808.09647  83912555.04847  20492325.7964   20492332.3794   20492325.2304
        56.000          52.000
 121293749.52947  94514586.62847  23081451.7334   23081457.5824   23081451.8804
        47.000          42.000
 119973660.24947  93485950.45747  22830241.6374   22830248.0844   22830241.2594
        50.000          45.000
 126595176.35347  98645566.15747  24090281.3724   24090287.7944   24090281.7664
        42.000          37.000
 107264676.58747  83582843.50847  20411806.8014   20411811.0764   20411807.2924
        54.000          50.000
 15  5  1  0 17  0.0000000  0  8G12G25G22G24G14G15G21G18
 117386207.24847  91469737.92047  22337878.8764   22337885.3724   22337878.2544
        49.000          45.000
 117972938.23347 109719127.93347  24352473.8224   24352485.1634   24352473.7454
        42.000          38.000
 112568756.96747  87715900.80447  21421132.2004   21421135.4894   21421132.8194
        54.000          49.000
 107726584.82747  83942770.66047  20499704.8694   20499711.3684   20499704.2254
        56.000          52.000
 121219279.43047  94456558.01747  23067280.4874   23067286.4884   23067280.7674
        48.000          42.000
 120052876.37147  93547677.22347  22845315.9934   22845322.6084   22845315.6354
        50.000          45.000
 126684539.50647  98715199.67047  24107286.9794   24107293.6594   24107286.6814
        42.000          37.000
 107263623.55147  83582022.94247  20411606.3284   20411610.7134   20411606.6014
        54.000          50.000
 15  5  1  0 17 30.0000000  0  8G12G25G22G24G14G15G21G18
 117299901.10247  91402486.47947  22321455.2944   22321461.8194   22321454.7074
        50.000          45.000
 117858383.34947 109629864.57247  24330674.6364   24330685.4274   24330674.7464
        42.000          38.000
 112509461.13047  87669696.27947  21409848.5624   21409851.9244   21409849.3374
        54.000          49.000
 107765804.32847  83973331.28747  20507167.9384   20507174.6954   20507167.3374
        56.000          51.000
 121144909.42947  94398607.40847  23053128.5984   23053134.6714   23053128.6454
        48.000          42.000
 120132237.88547  93609517.29247  22860418.3774   22860424.4664   22860417.8464
        50.000          45.000
 126773985.80047  98784897.96047  24124308.9194   24124314.3184   24124308.9334
        41.000          37.000
 107263078.48147  83581598.19747  20411502.4984   20411507.0044   20411502.9334
        54.000          50.000
 15  5  1  0 18  0.0000000  0  8G12G25G22G24G14G15G21G18
 117213972.00647  91335528.83647  22305103.8354   22305110.0094   22305103.8944
        50.000          45.000
 117743849.62847 109540617.75547  24308879.2314   24308890.8354   24308880.0154
        42.000          38.000
 112450565.63747  87623803.70347  21398640.9734   21398644.5044   21398641.4564
        54.000          49.000
 107805467.48147  84004237.61347  20514715.4394   20514722.2274   20514714.8134
        56.000          51.000
 121070643.05147  94340737.55347  23038996.0364   23039002.3784   23038996.2184
        47.000          42.000
 120211747.12947  93671472.47547  22875548.4914   22875554.8504   22875548.6804
        50.000          45.000
 126863515.29247  98854661.09147  24141345.5274   24141351.3654   24141345.2044
        42.000          37.000
 107263044.62747  83581571.80647  20411496.2254   20411500.5424   20411496.6674
        54.000          50.000
 15  5  1  0 18 30.0000000  0  8G12G25G22G24G14G15G21G18
 117128420.61647  91268865.50747  22288823.8554   22288829.5594   22288823.8434
        50.000          45.000
 117629336.89847 109451387.25447  24287088.4574   24287099.2944   24287088.6084
        42.000          38.000
 112392069.26647  87578222.13447  21387509.4124   21387512.9544   21387510.2724
        54.000          49.000
 107845569.31947  84035485.77847  20522346.4504   20522353.4454   20522345.7054
        56.000          51.000
 120996477.42847  94282946.20247  23024882.6734   23024888.9014   23024882.7094
        48.000          42.000
 120291400.21147  93733539.73247  22890706.0134   22890712.1324   22890705.8994
        50.000          44.000
 126953122.04847  98924484.44547  24158396.0194   24158403.0594   24158396.6684
        41.000          37.000
 107263519.97647  83581942.19247  20411586.6174   20411590.9684   20411587.1524
        54.000          50.000
 15  5  1  0 19  0.0000000  0  8G12G25G22G24G14G15G21G18
 117043250.20247  91202499.05647  22272616.3534   22272621.8564   22272616.0474
        50.000          45.000
 117514848.30747 109362175.58447  24265301.9654   24265312.5444   24265301.7564
        42.000          38.000
 112333974.15747  87532953.23047  21376454.3354   21376457.7884   21376454.9974
        54.000          49.000
 107886108.51847  84067074.74147  20530060.9684   20530068.0424   20530060.3494
        55.000          52.000
 120922413.12747  94225233.79747  23010789.0704   23010794.6464   23010789.4284
        48.000          43.000
 120371197.09947  93795719.05047  22905891.1014   22905897.0274   22905890.7624
        50.000          44.000
 127042803.46847  98994365.96347  24175462.5604   24175469.1884   24175463.3394
        41.000          37.000
 107264505.15147  83582709.84247  20411774.1034   20411778.4884   20411774.5094
        55.000          50.000
 15  5  1  0 19 30.0000000  0  8G12G25G22G24G14G15G21G18
 116958464.49547  91136432.37047  22256481.9974   22256487.6284   22256481.3464
        50.000          45.000
 117400387.39347 109272985.48547  24243519.6854   24243530.9014   24243519.7974
        42.000          38.000
 112276283.21547  87487999.26947  21365475.9374   21365479.3644   21365476.4754
        54.000          49.000
 107927083.69447  84099003.43047  20537858.4074   20537865.5444   20537857.8194
        56.000          51.000
 120848451.37647  94167601.29647  22996714.7924   22996720.3034   22996714.7564
        48.000          42.000
 120451137.69647  93858010.35147  22921103.3464   22921109.3704   22921103.0914
        50.000          44.000
 127132557.45847  99064303.97547  24192540.9884   24192548.4844   24192541.6204
        40.000          36.000
 107266001.67947  83583875.94947  20412058.9994   20412063.2004   20412059.4454
        54.000          50.000
 15  5  1  0 20  0.0000000  0  8G12G25G22G24G14G15G21G18
 116874067.56847  91070668.61747  22240421.6904   22240427.5194   22240421.0914
        51.000          45.000
 117285958.18147 109183820.07947  24221745.6134   24221755.1494   24221744.7134
        42.000          38.000
 112218999.55847  87443362.67247  21354575.3144   21354578.7684   21354575.8534
        54.000          49.000
 107968494.44347  84131271.52047  20545738.5834   20545745.6134   20545738.0664
        55.000          51.000
 120774593.75547  94110049.93947  22982659.7904   22982665.7604   22982659.9504
        48.000          42.000
 120531222.66647  93920414.14747  22936342.8274   22936348.7894   22936342.6254
        49.000          44.000
 127222381.85147  99134296.92447  24209634.8514   24209640.3944   24209635.5384
        40.000          36.000
 107268011.00347  83585441.64247  20412441.3294   20412445.5974   20412441.6504
        54.000          50.000
 15  5  1  0 20 30.0000000  0  8G12G25G22G24G14G15G21G18
 116790059.39747  91005207.80747  22224435.6334   22224441.4984   22224435.6034
        51.000          45.000
 117171560.24347 109094679.01147  24199975.7184   24199985.4084   24199975.8994
        43.000          38.000
 112162122.03747  87399042.54847  21343751.9014   21343755.2844   21343752.5024
        54.000          49.000
 108010335.24747  84163874.71947  20553700.6244   20553707.3274   20553699.9424
        55.000          51.000
 120700837.24547  94052577.37047  22968624.2054   22968630.1134   22968624.3314
        48.000          42.000
 120611447.82247  93982927.19547  22951609.2664   22951614.9114   22951608.9674
        50.000          44.000
 127312270.75447  99204340.10447  24226740.5994   24226746.7484   24226740.4114
        42.000          36.000
 107270530.71847  83587405.03747  20412920.7594   20412925.0784   20412921.1424
        54.000          50.000
 15  5  1  0 21  0.0000000  0  8G12G25G22G24G14G15G21G18
 116706440.62247  90940050.41547  22208523.6294   22208529.0154   22208523.2044
        51.000          46.000
 117057194.24747 109005562.80747  24178211.7684   24178222.0314   24178211.9474
        44.000          38.000
 112105650.30647  87355038.61547  21333005.8704   21333008.9414   21333006.6174
        54.000          49.000
 108052601.76347  84196809.64647  20561743.9064   20561750.3974   20561743.4084
        56.000          51.000
 120627179.88847  93995182.05647  22954607.1964   22954613.4594   22954607.6884
        49.000          42.000
 120691810.35947  94045547.30047  22966901.9294   22966907.6054   22966901.5344
        50.000          44.000
 127402218.66447  99274429.27647  24243857.0054   24243863.4484   24243857.4544
        41.000          37.000
 107273558.88147  83589764.62547  20413497.0854   20413501.4714   20413497.3624
        55.000          50.000
 15  5  1  0 21 30.0000000  0  8G12G25G22G24G14G15G21G18
 116623227.40747  90875209.04647  22192688.4904   22192694.3094   22192688.3264
        51.000          46.000
 116942875.67747 108916483.56047  24156458.4024   24156468.4054   24156458.5634
        44.000          38.000
 112049598.76547  87311362.10147  21322339.5024   21322342.6504   21322340.2114
        55.000          49.000
 108095305.04047  84230084.90947  20569869.9984   20569876.6024   20569869.5164
        56.000          51.000
 120553634.72947  93937874.16947  22940612.5044   22940618.2424   22940612.8854
        48.000          42.000
 120772322.42047  94108283.91247  22982222.9984   22982228.6914   22982222.6554
        50.000          44.000
 127492235.55447  99344572.17447  24260986.9024   24260993.1574   24260987.8184
        42.000          37.000
 107277109.16147  83592531.05747  20414172.7244   20414177.1154   20414173.1844
        54.000          50.000
 15  5  1  0 22  0.0000000  0  8G12G25G22G24G14G15G21G18
 116540404.41847  90810671.74847  22176927.4644   22176933.5884   22176926.6564
        51.000          46.000
 116828589.22947 108827429.33447  24134709.4304   24134720.0464   24134709.3944
        43.000          38.000
 111993951.23347  87268000.40447  21311749.9414   21311753.4084   21311750.5634
        54.000          49.000
 108138424.49647  84263684.47147  20578075.4004   20578082.0414   20578074.8254
        56.000          51.000
 120480183.92947  93880639.80747  22926635.2344   22926640.9404   22926635.2564
        48.000          42.000
 120852965.22447  94171122.41747  22997569.0984   22997574.8614   22997568.6934
        50.000          44.000
 127582300.29547  99414752.36747  24278126.2104   24278132.0554   24278127.2054
        43.000          37.000
 107281163.16447  83595690.00047  20414944.1334   20414948.6384   20414944.4884
        54.000          50.000
 15  5  1  0 22 30.0000000  0  8G12G25G22G24G14G15G21G18
 116457998.78847  90746459.65247  22161246.2964   22161251.7754   22161246.0264
        51.000          46.000
 116714362.30347 108738421.47947  24112972.5994   24112983.1734   24112973.3804
        44.000          38.000
 111938734.30147  87224974.23347  21301242.3364   21301245.8944   21301243.0814
        54.000          49.000
 108181983.03047  84297626.16447  20586364.1324   20586370.8864   20586363.6164
        55.000          51.000
 120406852.28947  93823498.30047  22912680.3634   22912686.0764   22912680.4764
        48.000          42.000
 120933762.86447  94234081.55147  23012944.1844   23012950.3834   23012943.4684
        50.000          44.000
 127672434.45747  99484986.66247  24295278.5044   24295284.6014   24295279.4024
        43.000          37.000
 107285746.02747  83599261.04047  20415816.2414   20415820.7424   20415816.4914
        54.000          50.000
 15  5  1  0 23  0.0000000  0  8G12G25G22G24G14G15G21G18
 116375984.93847  90682552.84547  22145639.2424   22145644.7904   22145638.9824
        51.000          46.000
 116600168.38247 108649439.32547  24091242.4324   24091253.2654   24091243.1104
        42.000          38.000
 111883920.56547  87182262.24147  21290811.5994   21290815.1794   21290812.2844
        54.000          49.000
 108225949.17447  84331885.47947  20594730.3604   20594737.3204   20594729.7294
        55.000          51.000
 120333610.78847  93766427.03247  22898742.9544   22898748.4024   22898742.9804
        49.000          42.000
 121014684.94447  94297137.66147  23028343.0554   23028349.2464   23028342.3174
        49.000          44.000
 127762605.57747  99555249.75147  24312437.1324   24312443.3864   24312438.4344
        43.000          37.000
 107290828.47347  83603221.37147  20416783.3784   20416787.9184   20416783.6894
        54.000          50.000
 15  5  1  0 23 30.0000000  0  8G12G25G22G24G14G15G21G18
 116294394.28347  90618975.77447  22130113.2044   22130118.5314   22130112.5884
        51.000          46.000
 116486038.85547 108560507.35547  24069524.7484   24069535.1644   24069524.9454
        42.000          38.000
 111829540.34447  87139888.05847  21280463.5354   21280466.8654   21280464.2614
        54.000          49.000
 108270349.30647  84366482.96747  20603179.6034   20603186.6284   20603179.1024
        55.000          51.000
 120260488.39047  93709448.57647  22884828.8434   22884834.0964   22884829.3774
        49.000          43.000
 121095759.28947  94360312.41747  23043770.5774   23043777.3084   23043769.4514
        49.000          44.000
 127852839.21847  99625561.55147  24329607.2484   24329614.4784   24329608.2114
        40.000          36.000
 107296440.23747  83607594.15547  20417851.2094   20417855.8814   20417851.4284
        54.000          50.000
 15  5  1  0 24  0.0000000  0  8G12G25G22G24G14G15G21G18
 116213206.35547  90555712.51847  22114663.7634   22114669.2824   22114663.3054
        52.000          46.000
 116371954.06347 108471610.23347  24047815.2224   24047825.6254   24047815.9314
        42.000          37.000
 111775573.10147  87097835.67247  21270194.1604   21270197.3634   21270194.6984
        55.000          49.000
 108315159.49447  84401399.97347  20611706.8934   20611714.0604   20611706.3454
        56.000          51.000
 120187462.53247  93652545.35147  22870932.1134   22870937.7414   22870932.3944
        48.000          43.000
 121176962.90747  94423587.91247  23059223.0334   23059229.7394   23059221.8184
        48.000          44.000
 127943109.99147  99695902.26947  24346785.4244   24346792.9474   24346784.7024
        40.000          36.000
 107302559.05747  83612362.03947  20419015.6344   20419020.1944   20419016.0354
        54.000          50.000
 15  5  1  0 24 30.0000000  0  8G12G25G22G24G14G15G21G18
 116132439.06147  90492777.02247  22099294.1164   22099299.7664   22099293.8494
        51.000          46.000
 116257930.86747 108382761.08247  24026117.4254   24026127.4334   24026117.1324
        42.000          37.000
 111722034.49647  87056117.29047  21260006.2694   21260009.2674   21260006.8814
        55.000          49.000
 108360391.01347  84436645.29247  20620314.4784   20620321.2754   20620313.8644
        56.000          51.000
 120114547.94347  93595728.82947  22857057.1474   22857062.5124   22857057.5874
        49.000          43.000
 121258309.05047  94486974.44447  23074702.8434   23074709.1854   23074701.5384
        48.000          44.000
 128033429.36647  99766280.85347  24363972.1644   24363980.0914   24363972.8294
        40.000          36.000
 107309199.00747  83617536.00647  20420279.3394   20420283.7164   20420279.7444
        54.000          50.000
 15  5  1  0 25  0.0000000  0  8G12G25G22G24G14G15G21G18
 116052085.10947  90430163.60147  22084002.8824   22084008.7554   22084002.2024
        51.000          46.000
 116143962.19547 108293954.37247  24004429.2674   24004439.4904   24004430.0284
        41.000          37.000
 111668916.57347  87014726.72147  21249898.1184   21249901.2054   21249898.8894
        55.000          49.000
 108406032.19147  84472209.82847  20628999.6894   20629006.2894   20628999.2244
        55.000          51.000
 120041735.12147  93538991.60847  22843201.3164   22843206.7574   22843201.7294
        48.000          43.000
 121339786.96947  94550463.67447  23090207.7234   23090214.1734   23090206.0034
        48.000          44.000
 128123783.63047  99836686.65847  24381167.0524   24381174.4034   24381166.4304
        42.000          36.000
 107316350.41947  83623108.51647  20421640.2724   20421644.7204   20421640.7214
        54.000          50.000
 15  5  1  0 25 30.0000000  0  9G12G25G22G24G14G15G04G21G18
 115972159.80447  90367884.20047  22068794.1314   22068799.2584   22068794.0814
        51.000          46.000
 116030063.57947 108205202.28847  23982754.3074   23982765.1944   23982754.1774
        41.000          38.000
 111616233.87947  86973675.28547  21239872.8114   21239875.9394   21239873.3624
        54.000          49.000
 108452093.54747  84508101.77647  20637764.6504   20637771.2884   20637764.2684
        55.000          51.000
 119969036.76647  93482343.58047  22829367.1774   22829372.8534   22829367.0824
        49.000          43.000
 121421408.90247  94614065.10947  23105739.9474   23105746.3054   23105738.9924
        49.000          44.000
 141785939.97657  92690295.89557  25078066.3115   25078077.8885   25078066.4465
        42.000          34.000
 128214182.96547  99907127.55747  24398369.5714   24398376.0964   24398370.1554
        42.000          36.000
 107324026.39947  83629089.77947  20423100.8904   20423105.4254   20423101.3914
        54.000          50.000
 15  5  1  0 26  0.0000000  0  9G12G25G22G24G14G15G04G21G18
 115892656.87647  90305933.90147  22053664.8184   22053670.2374   22053664.2964
        51.000          46.000
 115916228.23047 108116499.45047  23961092.6334   23961102.7784   23961093.0054
        42.000          39.000
 111563978.59447  86932956.89547  21229928.7864   21229932.2994   21229929.3274
        54.000          49.000
 108498563.43547  84544312.05947  20646607.3544   20646614.2194   20646606.8104
        55.000          51.000
 119896443.48447  93425777.43047  22815552.9234   22815559.0674   22815552.8914
        49.000          43.000
 121503164.39147  94677770.62147  23121298.0344   23121303.9294   23121297.3834
        49.000          44.000
 121731908.82757 112648201.24457  25067777.9605   25067788.8865   25067777.5475
        38.000          34.000
 128304614.60647  99977593.64147  24415578.7424   24415584.8514   24415578.5464
        42.000          37.000
 107332217.56047  83635472.48047  20424659.6524   20424664.1664   20424660.0824
        55.000          50.000
 15  5  1  0 26 30.0000000  0  9G12G25G22G24G14G15G04G21G18
 115813585.34347  90244319.75647  22038618.1284   22038623.7694   22038617.6894
        52.000          46.000
 115802465.28447 108027853.04847  23939444.0944   23939454.5404   23939444.7064
        43.000          39.000
 111512158.73047  86892577.80247  21220067.6094   21220071.4244   21220068.1674
        54.000          49.000
 108545446.42747  84580844.24547  20655529.0584   20655535.9544   20655528.4964
        55.000          51.000
 119823962.01447  93369298.41447  22801759.6724   22801766.2014   22801759.6854
        48.000          43.000
 121585059.13347  94741584.64847  23136882.2134   23136888.3714   23136881.5864
        49.000          44.000
 141678247.60457  92606368.16257  25057581.4775   25057595.7675   25057582.2125
        37.000          34.000
 128395081.98647 100048087.58547  24432794.0794   24432800.6264   24432792.9304
        43.000          37.000
 107340930.62447  83642261.85947  20426317.6664   20426322.1954   20426318.2044
        54.000          50.000
 15  5  1  0 27  0.0000000  0  9G12G25G22G24G14G15G04G21G18
 115734936.37647  90183034.87547  22023651.4984   22023657.4084   22023651.1794
        51.000          46.000
 115688766.12147 107939256.30247  23917807.9594   23917818.4334   23917808.1464
        44.000          40.000
 111460764.59647  86852530.44047  21210287.6934   21210291.3704   21210288.2194
        54.000          49.000
 108592728.11947  84617687.10347  20664526.3084   20664533.3514   20664525.4004
        55.000          51.000
 119751581.17747  93312897.81147  22787985.7644   22787992.3084   22787985.6704
        48.000          43.000
 121667080.60047  94805497.42947  23152490.1524   23152496.3384   23152489.3514
        49.000          44.000
 121625272.97457 112565111.56457  25047484.2505   25047493.1765   25047483.5965
        41.000          35.000
 128485570.44147 100118597.95147  24450012.7684   24450020.0614   24450013.6174
        43.000          37.000
 107350154.27347  83649449.09247  20428072.8244   20428077.4194   20428073.1384
        54.000          50.000
 15  5  1  0 27 30.0000000  0  9G12G25G22G24G14G15G04G21G18
 115656725.00647  90122090.97447  22008768.2304   22008774.1284   22008767.8094
        51.000          46.000
 115575145.47247 107850720.73347  23896187.0894   23896197.2544   23896186.9174
        44.000          40.000
 111409810.16847  86812825.71547  21200591.3304   21200595.0294   21200591.9114
        54.000          49.000
 108640418.66347  84654848.55647  20673601.6054   20673608.2754   20673601.0374
        55.000          51.000
 119679313.18247  93256585.12947  22774234.2114   22774239.9204   22774234.5884
        49.000          43.000
 121749240.49047  94869518.07247  23168124.5264   23168130.7594   23168123.8284
        49.000          44.000
 141572708.89557  92524160.35457  25037475.6715   25037482.6765   25037475.7875
        40.000          35.000
 128576089.06647 100189131.82347  24467238.6864   24467245.2274   24467238.1754
        42.000          37.000
 107359900.56147  83657043.58247  20429927.5914   20429932.0904   20429927.8914
        54.000          50.000
 15  5  1  0 28  0.0000000  0  9G12G25G22G24G14G15G04G21G18
 115578954.97647  90061490.98147  21993969.1804   21993974.9354   21993968.5734
        52.000          47.000
 115461607.07847 107762249.27247  23874581.7284   23874591.6364   23874581.7104
        44.000          40.000
 111359297.84047  86773465.48247  21190979.0924   21190982.7784   21190979.6354
        54.000          49.000
 108688516.90747  84692327.68747  20682754.5024   20682761.0574   20682753.9604
        55.000          51.000
 119607159.06547  93200361.18847  22760503.8104   22760509.3674   22760504.1104
        49.000          43.000
 121831538.78247  94933646.55547  23183785.3614   23183792.0674   23183784.1674
        48.000          43.000
 121520618.78857 112483570.32357  25027562.8305   25027569.7325   25027563.0075
        41.000          35.000
 128666635.69547 100259687.49147  24484468.7254   24484475.6304   24484469.1274
        42.000          37.000
 107370170.23347  83665045.90547  20431881.8634   20431886.3194   20431882.2534
        55.000          50.000
 15  5  1  0 28 30.0000000  0  9G12G25G22G24G14G15G04G21G18
 115501619.80047  90001229.82647  21979252.9664   21979258.4444   21979252.5794
        52.000          47.000
 115348144.65647 107673837.01247  23852990.4104   23853000.3704   23852990.7404
        45.000          40.000
 111309220.29447  86734444.04147  21181449.6224   21181453.1144   21181450.0074
        54.000          49.000
 108737011.33947  84730115.54847  20691982.6214   20691989.4084   20691982.0494
        55.000          51.000
 119535110.21847  93144219.26747  22746793.1294   22746798.6894   22746793.5394
        49.000          43.000
 121913965.52247  94997875.13247  23199470.8084   23199477.3764   23199469.7434
        48.000          43.000
 121469009.66047 112443355.37147  25017742.0974   25017748.4434   25017741.9704
        41.000          35.000
 128757198.22347 100330255.55347  24501702.8374   24501710.0604   24501703.6494
        43.000          37.000
 107380954.84047  83673449.47547  20433934.0354   20433938.6224   20433934.4804
        54.000          50.000
 15  5  1  0 29  0.0000000  0  9G12G25G22G24G14G15G04G21G18
 115424722.28147  89941309.70747  21964619.8634   21964625.6954   21964619.8944
        52.000          47.000
 115234760.85447 107585485.99347  23831414.3684   23831424.3954   23831414.5884
        45.000          40.000
 111259579.01147  86695762.54147  21172003.3094   21172006.5884   21172003.7244
        54.000          49.000
 108785900.32547  84768210.85747  20701285.9974   20701292.9614   20701285.4364
        55.000          51.000
 119463166.61547  93088159.35147  22733102.5164   22733108.0694   22733102.5724
        49.000          43.000
 121996519.73747  95062203.02447  23215180.4544   23215187.1004   23215179.5054
        48.000          43.000
 121417890.61847 112403522.36547  25008013.8804   25008020.7414   25008013.5504
        38.000          34.000
 128847773.46947 100400833.51947  24518938.7484   24518946.3184   24518938.6934
        41.000          37.000
 107392254.01947  83682254.01447  20436084.3304   20436088.8004   20436084.7374
        55.000          50.000
 15  5  1  0 29 30.0000000  0  9G12G25G22G24G14G15G04G21G18
 115348285.36147  89881748.48747  21950074.1664   21950079.9854   21950073.8644
        51.000          47.000
 115121478.82547 107497214.31047  23809857.7294   23809867.5204   23809857.7554
        44.000          40.000
 111210396.12947  86657438.23547  21162644.1194   21162647.3994   21162644.4834
        55.000          49.000
 108835201.45147  84806627.30547  20710667.6944   20710674.8324   20710667.1024
        55.000          51.000
 119391348.96347  93032197.56947  22719435.9554   22719441.8104   22719436.2894
        49.000          43.000
 122079220.82047  95126645.37847  23230917.7534   23230924.5964   23230916.8794
        48.000          43.000
 121367283.58047 112364088.29547  24998381.1484   24998389.7044   24998380.4934
        38.000          34.000
 128938378.83047 100471434.97047  24536180.1984   24536187.7214   24536181.6654
        41.000          36.000
 107404088.51047  83691475.67347  20438336.4594   20438340.9134   20438336.7754
        55.000          50.000
 15  5  1  0 30  0.0000000  0  9G12G25G22G24G14G15G04G21G18
 115272289.01847  89822530.57847  21935612.6344   21935618.6004   21935611.9734
        52.000          47.000
 115008278.58347 107409006.32547  23788315.8504   23788326.0904   23788315.7024
        44.000          40.000
 111161650.36747  86619454.53847  21153368.3524   21153371.5144   21153369.0214
        55.000          49.000
 108884889.76747  84845345.46647  20720122.9444   20720129.9574   20720122.3654
        55.000          51.000
 119319634.53447  92976316.23547  22705789.1364   22705795.2244   22705789.6074
        48.000          43.000
 122162045.59347  95191184.09747  23246679.0704   23246685.6774   23246678.4644
        48.000          43.000
 121317167.35247 112325036.63547  24988843.7924   24988853.3584   24988843.9634
        38.000          35.000
 129028988.49047 100542039.75147  24553422.6854   24553430.0484   24553423.7764
        42.000          37.000
 107416435.34347  83701096.56747  20440685.8874   20440690.3954   20440686.1854
        55.000          50.000
 15  5  1  0 30 30.0000000  0  9G12G25G22G24G14G15G04G21G18
 115196741.94447  89763662.74147  21921236.6244   21921242.1704   21921236.5484
        52.000          47.000
 114895168.75847 107320868.83447  23766791.3704   23766801.8764   23766791.1274
        43.000          40.000
 111113349.26347  86581817.32847  21144177.1234   21144180.2824   21144177.6684
        55.000          49.000
 108934968.96247  84884368.21247  20729652.8324   20729659.6024   20729652.2194
        55.000          51.000
 119248029.84947  92920520.41447  22692163.2314   22692169.0944   22692163.4184
        49.000          43.000
 122244999.16247  95255823.17147  23262464.6534   23262471.1364   23262464.2984
        48.000          43.000
 121267548.81447 112286372.80247  24979402.0504   24979412.0394   24979401.8734
        40.000          35.000
 129119605.13947 100612649.97647  24570666.9064   24570674.4434   24570668.1394
        41.000          36.000
 107429300.23847  83711121.14647  20443133.9714   20443138.4944   20443134.1324
        54.000          50.000
 15  5  1  0 31  0.0000000  0  9G12G25G22G24G14G15G04G21G18
 115121659.25747  89705156.76847  21906948.8374   21906954.2704   21906948.7734
        53.000          47.000
 114782164.57647 107232813.65947  23745286.8404   23745298.0394   23745286.8484
        43.000          39.000
 111065507.17247  86544537.78747  21135072.8884   21135076.2494   21135073.7094
        55.000          49.000
 108985449.17847  84923703.43547  20739258.9054   20739265.6554   20739258.3564
        55.000          51.000
