     2.11           OBSERVATION DATA    G (GPS)             RINEX VERSION / TYPE
teqc  2013Mar15     gpsops              20150507 19:36:20UTCPGM / RUN BY / DATE
Linux 2.4.21-27.ELsmp|Opteron|gcc -static|Linux x86_64|=+   COMMENT
BIT 2 OF LLI FLAGS DATA COLLECTED UNDER A/S CONDITION       COMMENT
CRAO                                                        MARKER NAME
12337M002                                                   MARKER NUMBER
Reilnger, Rob       MIT                                     OBSERVER / AGENCY
UC120031621         ASHTECH UZ-12       CQ00                REC # / TYPE / VERS
CR520003501         ASH701945C_M    SCIS                    ANT # / TYPE
  3783897.0146  2551404.4833  4441264.3100                  APPROX POSITION XYZ
        0.0800        0.0000        0.0000                  ANTENNA: DELTA H/E/N
     1     1                                                WAVELENGTH FACT L1/2
     7    L1    L2    P1    P2    C1    S1    S2            # / TYPES OF OBSERV
    30.0000                                                 INTERVAL
                                                            COMMENT
This data is provided as a public service by NASA/JPL.      COMMENT
No warranty is expressed or implied regarding suitability   COMMENT
for use.  For further information, contact:                 COMMENT
Dave Stowers, NASA/JPL m/s 238-600                          COMMENT
4800 Oak Grove Drive, Pasadena CA 91109 USA                 COMMENT
                                                            COMMENT
Forced Modulo Decimation to 30 seconds                      COMMENT
 SNR is mapped to RINEX snr flag value [0-9]                COMMENT
  L1 & L2: min(max(int(snr_dBHz/6), 0), 9)                  COMMENT
pseudorange smoothing corrections not applied               COMMENT
  2015     5     1     0     0    0.0000000     GPS         TIME OF FIRST OBS
                                                            END OF HEADER
 15  5  1  0  0  0.0000000  0  9G11G01G04G32G18G22G19G14G27
 -12154039.14248  -9412395.46347  22128746.4704   22128748.6844   22128746.376
        49.0004         44.0004
  -6692409.32647  -5125017.04446  23587227.9134   23587233.2834   23587229.070
        44.0004         39.0004
 -18865694.82848 -14635848.74147  21216258.5514   21216260.8474   21216258.585
        52.0004         47.0004
 -16391652.80148 -12695523.80047  21792266.0634   21792269.9694   21792266.114
        50.0004         45.0004
  -8767090.39747  -6568213.30946  23465530.3974   23465530.7114   23465530.799
        45.0004         40.0004
 -16558605.45049 -12849862.26748  21066488.6814   21066489.7224   21066489.603
        54.0004         49.0004
 -19778000.58049 -15349219.09848  20967885.5994   20967887.0514   20967886.906
        55.0004         50.0004
 -17535877.05248 -13601700.34048  21153428.6864   21153430.8734   21153429.365
        53.0004         49.0004
 -15880333.59948 -12359310.60248  21758145.4514   21758150.1854   21758145.042
        53.0004         48.0004
 15  5  1  0  0 30.0000000  0  9G11G01G04G32G18G22G19G14G27
 -12240132.19648  -9479480.92847  22112363.7954   22112365.2484   22112363.937
        49.0004         44.0004
  -6785172.20147  -5197299.78146  23569576.3354   23569581.9164   23569577.359
        44.0004         40.0004
 -18932991.04248 -14688287.34247  21203452.0604   21203454.8844   21203452.011
        52.0004         47.0004
 -16464886.98448 -12752589.35847  21778329.6564   21778333.2324   21778330.540
        50.0004         45.0004
  -8687445.11447  -6506152.08446  23480686.1944   23480685.8894   23480687.301
        45.0004         40.0004
 -16508005.09149 -12810433.42848  21076117.9604   21076119.0254   21076119.090
        54.0004         49.0004
 -19748804.28249 -15326468.74748  20973441.7384   20973442.7404   20973443.054
        55.0004         50.0004
 -17564138.95948 -13623722.58848  21148050.5324   21148052.7124   21148050.948
        53.0004         49.0004
 -15796658.02048 -12294108.87448  21774068.1174   21774073.1254   21774068.097
        53.0004         48.0004
 15  5  1  0  1  0.0000000  0  9G11G01G04G32G18G22G19G14G27
 -12325924.73148  -9546332.23147  22096037.7744   22096039.1494   22096038.481
        49.0004         44.0004
  -6877856.81247  -5269521.51146  23551939.5724   23551944.3924   23551937.971
        44.0004         40.0004
 -18999995.99248 -14740498.97547  21190701.2234   21190704.0714   21190701.277
        52.0004         47.0004
 -16537793.67848 -12809399.73447  21764456.0314   21764460.3304   21764456.756
        50.0004         46.0004
  -8607723.52647  -6444031.38346  23495855.9214   23495856.2774   23495856.936
        45.0004         40.0004
 -16457150.33049 -12770806.33848  21085795.2614   21085795.6724   21085796.045
        54.0004         49.0004
 -19719030.41949 -15303268.34748  20979107.3184   20979108.5604   20979108.274
        55.0004         50.0004
 -17591844.31748 -13645311.16448  21142778.1324   21142780.3754   21142778.107
        53.0004         48.0004
 -15712592.59748 -12228603.37148  21790065.6724   21790070.6194   21790065.334
        53.0004         48.0004
 15  5  1  0  1 30.0000000  0  9G11G01G04G32G18G22G19G14G27
 -12411415.64748  -9612948.50747  22079768.7484   22079770.5404   22079769.412
        49.0004         44.0004
  -6970463.10647  -5341682.23446  23534315.4024   23534320.9414   23534314.143
        44.0004         39.0004
 -19066709.25148 -14792483.32647  21178006.6464   21178008.8364   21178006.025
        52.0004         47.0004
 -16610373.49948 -12865955.39647  21750643.9164   21750648.2074   21750645.195
        50.0004         46.0004
  -8527927.89547  -6381852.96846  23511041.0554   23511043.3724   23511041.404
        45.0004         40.0004
 -16406043.59249 -12730982.91248  21095520.6064   21095520.7754   21095521.560
        54.0004         49.0004
 -19688681.19949 -15279619.61248  20984882.7004   20984883.7704   20984883.685
        55.0004         50.0004
 -17618993.58548 -13666466.42948  21137612.2614   21137614.0434   21137613.012
        53.0004         48.0004
 -15628141.07148 -12162797.01348  21806136.2504   21806141.3874   21806137.040
        53.0004         48.0004
 15  5  1  0  2  0.0000000  0  9G11G01G04G32G18G22G19G14G27
 -12496603.98248  -9679329.00247  22063558.7624   22063560.7894   22063559.174
        49.0004         45.0004
  -7062991.03347  -5413781.89946  23516708.5964   23516714.0954   23516709.356
        45.0004         40.0004
 -19133130.46048 -14844240.10447  21165367.1924   21165369.6464   21165366.879
        52.0004         47.0004
 -16682626.97548 -12922256.77047  21736895.5814   21736899.2154   21736896.082
        50.0004         46.0004
  -8448059.95747  -6319618.18546  23526238.6934   23526240.7334   23526239.313
        44.0004         40.0004
 -16354687.40049 -12690965.09548  21105293.4254   21105293.6974   21105294.401
        54.0004         49.0004
 -19657758.91149 -15255524.33248  20990767.1524   20990768.5774   20990767.938
        55.0004         50.0004
 -17645587.54348 -13687188.98248  21132551.9084   21132553.7344   21132552.070
        53.0004         49.0004
 -15543307.15648 -12096692.68548  21822279.3714   21822283.7484   21822278.897
        53.0004         48.0004
 15  5  1  0  2 30.0000000  0  9G11G01G04G32G18G22G19G14G27
 -12581485.03548  -9745470.05747  22047406.3184   22047406.9934   22047407.487
        49.0004         45.0004
  -7155437.00947  -5485817.71346  23499117.9284   23499121.8284   23499118.346
        45.0004         41.0004
 -19199255.43448 -14895766.05148  21152783.5224   21152786.7354   21152783.718
        52.0004         48.0004
 -16754551.17048 -12978301.55747  21723209.1464   21723212.4414   21723209.501
        51.0004         46.0004
  -8368118.75747  -6257326.37746  23541451.3174   23541452.8604   23541452.648
        44.0004         40.0004
 -16303080.78949 -12650752.15348  21115113.6414   21115114.0484   21115114.662
        54.0004         49.0004
 -19626262.16349 -15230981.42448  20996760.9674   20996762.0164   20996762.337
        55.0004         50.0004
 -17671622.49948 -13707475.93948  21127597.4384   21127599.4254   21127598.042
        53.0004         49.0004
 -15458091.00948 -12030290.51447  21838495.0234   21838500.4574   21838494.761
        52.0004         47.0004
 15  5  1  0  3  0.0000000  0  9G11G01G04G32G18G22G19G14G27
 -12666059.11048  -9811371.89447  22031311.9214   22031313.0474   22031312.900
        49.0004         44.0004
  -7247802.27947  -5557790.63046  23481540.6964   23481545.7204   23481540.740
        45.0004         41.0004
 -19265085.29948 -14947062.03548  21140256.3334   21140259.7214   21140255.856
        52.0004         48.0004
 -16826147.91348 -13034091.18747  21709584.4954   21709587.5894   21709585.207
        51.0004         46.0004
  -8288107.64247  -6194980.06146  23556677.6684   23556679.1364   23556680.655
        44.0004         40.0004
 -16251227.54149 -12610347.02748  21124981.2284   21124981.3324   21124981.976
        54.0004         49.0004
 -19594194.39849 -15205993.56348  21002862.9384   21002864.2224   21002864.001
        55.0004         50.0004
 -17697100.42248 -13727328.85148  21122748.6204   21122750.9404   21122749.754
        53.0004         49.0004
 -15372497.69748 -11963594.45148  21854783.4124   21854788.6114   21854783.721
        52.0004         48.0004
 15  5  1  0  3 30.0000000  0  9G11G01G04G32G18G22G19G14G27
 -12750322.28348  -9877031.48247  22015277.0974   22015279.4274   22015277.713
        49.0004         45.0004
  -7340083.79147  -5629698.27946  23463979.5264   23463985.7724   23463977.784
        45.0004         40.0004
 -19330616.63648 -14998125.40247  21127786.4694   21127789.2684   21127786.378
        52.0004         47.0004
 -16897414.74848 -13089623.75247  21696022.1754   21696026.3354   21696022.651
        51.0004         46.0004
  -8208025.35147  -6132578.30546  23571915.9834   23571917.8544   23571917.903
        44.0004         40.0004
 -16199126.76349 -12569749.02148  21134895.8664   21134896.0634   21134897.077
        54.0004         49.0004
 -19561554.49249 -15180559.87648  21009074.0524   21009075.4844   21009075.218
        55.0004         50.0004
 -17722018.90248 -13746745.82948  21118007.0324   21118009.2354   21118007.905
        53.0004         49.0004
 -15286527.89348 -11896605.02148  21871142.7584   21871148.1724   21871142.997
        53.0004         48.0004
 15  5  1  0  4  0.0000000  0  9G11G01G04G32G18G22G19G14G27
 -12834271.40648  -9942446.36847  21999302.2714   21999304.6264   21999303.073
        49.0004         45.0004
  -7432279.77547  -5701539.25346  23446434.9224   23446441.3294   23446433.528
        45.0004         40.0004
 -19395847.05748 -15048954.28548  21115373.9684   21115375.7744   21115373.714
        52.0004         48.0004
 -16968350.67348 -13144898.46047  21682523.7414   21682528.1804   21682524.119
        51.0004         46.0004
  -8127872.54447  -6070121.58946  23587169.4324   23587170.7174   23587169.115
        45.0004         40.0004
 -16146779.23849 -12528958.73948  21144856.7254   21144857.6194   21144857.688
        54.0004         49.0004
 -19528343.28649 -15154681.03348  21015394.2004   21015395.0264   21015395.255
        55.0004         50.0004
 -17746376.68848 -13765725.90948  21113371.8004   21113374.1304   21113372.172
        53.0004         49.0004
 -15200183.66348 -11829323.84047  21887573.2194   21887578.1434   21887572.965
        52.0004         47.0004
 15  5  1  0  4 30.0000000  0  9G11G01G04G32G18G22G19G14G27
 -12917906.41048 -10007616.47647  21983387.0804   21983388.6034   21983387.348
        49.0004         44.0004
  -7524390.72447  -5773313.98146  23428906.7944   23428913.1814   23428906.337
        45.0004         40.0004
 -19460776.92148 -15099548.97248  21103017.9324   21103020.4474   21103017.721
        52.0004         48.0004
 -17038956.86648 -13199916.23647  21669087.6644   21669092.1654   21669088.418
        51.0004         46.0004
  -8047652.08647  -6007612.13446  23602436.0544   23602438.8914   23602436.195
        45.0004         40.0004
 -16094188.19849 -12487978.71148  21154864.4544   21154865.5364   21154865.337
        54.0004         49.0004
 -19494563.50749 -15128359.13448  21021822.4124   21021823.5974   21021823.568
        55.0004         50.0004
 -17770175.26948 -13784270.23648  21108842.6744   21108845.6364   21108842.876
        53.0004         48.0004
 -15113469.38448 -11761754.30347  21904075.0644   21904079.5564   21904074.836
        52.0004         47.0004
 15  5  1  0  5  0.0000000  0  9G11G01G04G32G18G22G19G14G27
 -13001222.32748 -10072537.93247  21967532.2074   21967534.3894   21967533.150
        49.0004         45.0004
  -7616412.76147  -5845019.43546  23411395.2824   23411401.5214   23411396.463
        45.0004         40.0004
 -19525401.96848 -15149906.14548  21090720.0754   21090722.5424   21090720.170
        52.0004         48.0004
 -17109230.03748 -13254674.51647  21655715.3654   21655719.2884   21655715.920
        51.0004         46.0004
  -7967362.00747  -5945048.43446  23617715.4494   23617716.1964   23617716.007
        45.0004         40.0004
 -16041352.41949 -12446807.97148  21164918.8994   21164919.9344   21164919.710
        54.0004         49.0004
 -19460213.44849 -15101592.86148  21028358.9904   21028360.4284   21028360.074
        55.0004         50.0004
 -17793411.25748 -13802376.18548  21104420.9734   21104423.4434   21104421.277
        53.0004         48.0004
 -15026385.03048 -11693896.38248  21920646.6364   21920651.1934   21920646.898
        52.0004         48.0004
 15  5  1  0  5 30.0000000  0  9G11G01G04G32G18G22G19G14G27
 -13084219.79148 -10137211.26147  21951738.8844   21951740.6064   21951738.979
        49.0004         45.0004
  -7708347.62847  -5916656.97446  23393901.1654   23393907.4874   23393901.217
        45.0004         41.0004
 -19589723.64048 -15200026.91248  21078480.0884   21078483.3144   21078480.182
        52.0004         48.0004
 -17179172.61548 -13309175.19947  21642405.6654   21642409.3474   21642406.341
        51.0004         46.0004
  -7887006.33247  -5882433.63346  23633005.3804   23633006.8354   23633006.558
        45.0004         40.0004
 -15988275.78349 -12405449.55648  21175018.8634   21175019.8994   21175019.814
        54.0004         49.0004
 -19425297.25049 -15074385.45048  21035003.3414   21035004.2564   21035004.600
        54.0004         50.0004
 -17816087.16148 -13820045.70748  21100106.4484   21100108.8084   21100106.927
        53.0004         49.0004
 -14938936.17348 -11625754.46047  21937287.4294   21937292.4944   21937286.920
        52.0004         47.0004
 15  5  1  0  6  0.0000000  0  9G11G01G04G32G18G22G19G14G27
 -13166893.89748 -10201632.61847  21936005.8484   21936008.2364   21936005.932
        49.0004         45.0004
  -7800191.29247  -5988223.42546  23376423.9434   23376430.4714   23376423.684
        46.0004         41.0004
 -19653737.58048 -15249907.88148  21066299.0244   21066301.5844   21066298.907
        52.0004         48.0004
 -17248781.35248 -13363415.73747  21629160.2534   21629163.7484   21629160.591
        51.0004         46.0004
  -7806583.25547  -5819766.31146  23648308.7354   23648310.3104   23648308.889
        45.0004         40.0004
 -15934956.95649 -12363902.42748  21185165.2544   21185166.4334   21185166.091
        54.0004         49.0004
 -19389813.38149 -15046735.70348  21041755.4514   21041756.7894   21041756.335
        54.0004         50.0004
 -17838199.36748 -13837275.97648  21095898.2444   21095901.2104   21095898.867
        53.0004         49.0004
 -14851122.64348 -11557328.37447  21953997.7614   21954002.8724   21953998.578
        52.0004         47.0004
 15  5  1  0  6 30.0000000  0  9G11G01G04G32G18G22G19G14G27
 -13249243.42548 -10265801.05347  21920335.6004   21920336.9024   21920335.705
        49.0004         44.0004
  -7891943.22847  -6059718.41647  23358964.7354   23358970.6614   23358964.133
        46.0004         42.0004
 -19717442.76248 -15299548.26848  21054176.2204   21054178.6544   21054175.741
        53.0004         48.0004
 -17318056.51748 -13417396.34447  21615977.4874   21615981.2424   21615978.274
        51.0004         46.0004
  -7726094.21947  -5757047.61346  23663624.1734   23663627.4554   23663625.519
        44.0004         40.0004
 -15881397.98748 -12322168.17448  21195357.2664   21195357.7404   21195357.941
        53.0004         49.0004
 -19353763.79749 -15018645.12748  21048615.3164   21048616.9574   21048616.043
        54.0004         50.0004
 -17859748.57648 -13854067.55248  21091797.7364   21091799.9124   21091798.288
        53.0004         49.0004
 -14762947.91648 -11488620.81447  21970776.6354   21970781.3894   21970776.540
        52.0004         47.0004
 15  5  1  0  7  0.0000000  0  9G11G01G04G32G18G22G19G14G27
 -13331266.97148 -10329715.46647  21904726.6264   21904729.1474   21904726.980
        49.0004         45.0004
  -7983603.40547  -6131141.91947  23341522.6224   23341528.0654   23341521.773
        46.0004         42.0004
 -19780838.96448 -15348947.89248  21042111.5874   21042114.4184   21042111.607
        52.0004         48.0004
 -17386998.77148 -13471117.55347  21602857.5714   21602861.1254   21602858.639
        51.0004         46.0004
  -7645541.47847  -5694279.27146  23678954.2814   23678957.3624   23678955.663
        44.0004         40.0004
 -15827601.19748 -12280248.59348  21205594.3634   21205595.1514   21205595.375
        53.0004         49.0004
 -19317150.79849 -14990115.52848  21055583.4714   21055583.7814   21055584.618
        54.0004         50.0004
 -17880735.34548 -13870420.86048  21087804.4464   21087806.5844   21087804.864
        53.0004         49.0004
 -14674415.83448 -11419634.80847  21987623.6194   21987628.9584   21987622.419
        52.0004         47.0004
 15  5  1  0  7 30.0000000  0  9G11G01G04G32G18G22G19G14G27
 -13412960.69848 -10393372.89547  21889180.2384   21889182.7854   21889181.510
        49.0004         44.0004
  -8075168.72347  -6202491.48246  23324095.7874   23324102.2464   23324096.775
        46.0004         41.0004
 -19843922.59348 -15398103.94648  21030107.9984   21030110.3624   21030107.578
        53.0004         48.0004
 -17455605.71048 -13524577.47147  21589802.0224   21589805.9944   21589802.868
        51.0004         46.0004
  -7564924.13047  -5631460.58146  23694294.9754   23694296.6464   23694295.906
        44.0004         39.0004
 -15773566.46349 -12238143.60748  21215877.2474   21215877.4334   21215878.269
        54.0004         49.0004
 -19279973.80649 -14961146.45448  21062657.0884   21062658.1794   21062658.085
        54.0004         50.0004
 -17901157.53548 -13886334.24148  21083917.6454   21083920.4594   21083918.664
        53.0004         49.0004
 -14585527.16148 -11350370.94447  22004538.4164   22004544.3554   22004538.526
        52.0004         47.0004
 15  5  1  0  8  0.0000000  0  9G11G01G04G32G18G22G19G14G27
 -13494323.39948 -10456772.38147  21873698.0114   21873700.0694   21873698.753
        49.0004         45.0004
  -8166639.02747  -6273767.00946  23306690.1364   23306695.8984   23306690.257
        46.0004         41.0004
 -19906693.48148 -15447016.30948  21018162.6734   21018165.6634   21018162.958
        53.0004         48.0004
 -17523878.00948 -13577776.62747  21576810.3134   21576813.9534   21576810.878
        51.0004         46.0004
  -7484244.23947  -5568593.12846  23709646.7984   23709649.3904   23709647.239
        44.0004         39.0004
 -15719295.69149 -12195854.69648  21226204.3944   21226205.3894   21226205.638
        54.0004         49.0004
 -19242234.99949 -14931739.59848  21069838.3424   21069839.7904   21069838.707
        54.0004         49.0004
 -17921015.80848 -13901808.21148  21080139.0174   21080141.3484   21080139.658
        53.0004         49.0004
 -14496285.73348 -11280832.19947  22021521.5154   22021525.8504   22021521.141
        52.0004         47.0004
 15  5  1  0  8 30.0000000  0  9G11G01G04G32G18G22G19G14G27
 -13575349.95248 -10519909.93747  21858279.5864   21858281.0044   21858280.129
        49.0004         45.0004
  -8258010.11147  -6344965.18146  23289303.2014   23289309.0274   23289303.229
        45.0004         41.0004
 -19969146.85148 -15495681.25448  21006277.7694   21006280.7074   21006277.358
        53.0004         48.0004
 -17591812.22948 -13630712.33647  21563882.4244   21563886.5404   21563883.562
        51.0004         46.0004
  -7403499.69847  -5505675.27046  23725010.8734   23725015.4244   23725011.402
        44.0004         39.0004
 -15664787.20549 -12153380.55548  21236577.3844   21236576.9944   21236578.427
        54.0004         49.0004
 -19203932.87349 -14901893.79948  21077127.1854   21077128.5204   21077128.524
        54.0004         50.0004
 -17940306.51848 -13916839.91148  21076468.1554   21076470.1434   21076468.677
        53.0004         49.0004
 -14406691.29848 -11211018.38347  22038570.5854   22038575.2804   22038570.775
        52.0004         47.0004
 15  5  1  0  9  0.0000000  0  9G11G01G04G32G18G22G19G14G27
 -13656042.89348 -10582787.52047  21842924.5364   21842925.7364   21842925.263
        50.0004         45.0004
  -8349285.11547  -6416088.52146  23271935.2904   23271940.4974   23271935.469
        45.0004         41.0004
 -20031285.72648 -15544101.13548  20994453.3724   20994456.2244   20994452.844
        53.0004         48.0004
 -17659412.44148 -13683387.79647  21551018.5164   21551022.4464   21551020.018
        51.0004         46.0004
  -7322696.09147  -5442711.43346  23740390.2744   23740392.3774   23740391.464
        44.0004         40.0004
 -15610047.03049 -12110725.86548  21246993.8164   21246994.5054   21246994.854
        54.0004         49.0004
 -19165073.17649 -14871613.53148  21084522.0704   21084523.2484   21084522.883
        54.0004         50.0004
 -17959034.18748 -13931432.88448  21072904.3804   21072906.7574   21072904.924
        53.0004         49.0004
 -14316751.01648 -11140935.07047  22055684.6984   22055690.9854   22055684.995
        51.0004         47.0004
 15  5  1  0  9 30.0000000  0  9G11G01G04G32G18G22G19G14G27
 -13736396.14748 -10645400.41047  21827633.9604   21827634.7314   21827633.974
        50.0004         45.0004
  -8440459.05147  -6487133.10346  23254584.9584   23254590.6764   23254584.976
        46.0004         41.0004
 -20093104.69948 -15592271.74348  20982689.6764   20982692.6104   20982689.666
        53.0004         48.0004
 -17726674.41548 -13735799.69047  21538219.1184   21538222.5724   21538219.432
        51.0004         46.0004
  -7241830.69247  -5379699.45846  23755778.5284   23755779.9854   23755779.487
        44.0004         39.0004
 -15555072.40648 -12067888.51348  21257455.1604   21257455.3144   21257455.997
        53.0004         49.0004
 -19125653.34549 -14840896.78548  21092023.2444   21092024.9044   21092024.276
        54.0004         50.0004
 -17977194.62848 -13945583.86948  21069448.6264   21069450.9634   21069448.907
        53.0004         49.0004
 -14226463.85748 -11070581.46347  22072866.7444   22072872.1654   22072866.846
        51.0004         47.0004
 15  5  1  0 10  0.0000000  0  9G11G01G04G32G18G22G19G14G27
 -13816408.74748 -10707747.87047  21812407.7924   21812409.1914   21812407.751
        50.0004         45.0004
  -8531532.03947  -6558099.01147  23237253.9064   23237260.5824   23237253.616
        46.0004         42.0004
 -20154603.67548 -15640193.02448  20970987.1134   20970989.5324   20970986.937
        53.0004         48.0004
 -17793599.15048 -13787948.81347  21525483.2754   21525487.8344   21525483.925
        51.0004         46.0004
  -7160905.51847  -5316640.90246  23771177.6504   23771181.0564   23771178.356
        44.0004         39.0004
 -15499866.22648 -12024870.71148  21267960.6314   21267960.7784   21267961.634
        53.0004         49.0004
 -19085676.07649 -14809745.68348  21099631.8254   21099632.2974   21099633.293
        54.0004         50.0004
 -17994788.72148 -13959293.53548  21066100.4044   21066102.8934   21066100.888
        53.0004         49.0004
 -14135833.93948 -10999960.78947  22090112.9234   22090117.8684   22090113.169
        52.0004         47.0004
 15  5  1  0 10 30.0000000  0  9G11G01G04G32G18G22G19G14G27
 -13896078.41948 -10769828.11447  21797246.7424   21797248.7544   21797247.053
        50.0004         45.0004
  -8622502.66847  -6628985.16747  23219942.5234   23219950.4044   23219941.695
        47.0004         42.0004
 -20215781.03548 -15687863.68048  20959344.7794   20959347.9294   20959344.537
        53.0004         48.0004
 -17860185.96948 -13839834.61747  21512812.8934   21512816.2734   21512814.149
        51.0004         47.0004
  -7079921.42647  -5253536.38946  23786588.3914   23786591.4044   23786588.136
        44.0004         39.0004
 -15444429.87648 -11981673.56148  21278509.6704   21278510.2134   21278510.849
        53.0004         49.0004
 -19045142.87749 -14778161.38148  21107344.1324   21107345.6304   21107344.789
        54.0004         50.0004
 -18011816.18648 -13972561.66848  21062860.4904   21062862.5414   21062860.537
        53.0004         49.0004
 -14044863.91848 -10929075.08847  22107423.7264   22107429.5684   22107424.512
        51.0004         47.0004
 15  5  1  0 11  0.0000000  0  9G11G01G04G32G18G22G19G14G27
 -13975401.84648 -10831638.54547  21782152.2274   21782152.9484   21782152.706
        50.0004         45.0004
  -8713368.44347  -6699789.62347  23202652.3474   23202658.7424   23202653.080
        47.0004         42.0004
 -20276633.69448 -15735281.31148  20947765.1184   20947767.8364   20947765.171
        53.0004         48.0004
 -17926433.34348 -13891455.91247  21500206.3754   21500210.7224   21500208.025
        51.0004         47.0004
  -6998878.02847  -5190385.69846  23802009.9074   23802012.7764   23802011.600
        44.0004         39.0004
 -15388763.11348 -11938296.87948  21289102.9884   21289103.1784   21289103.697
        53.0004         49.0004
 -19004053.92349 -14746144.02548  21115162.5924   21115164.1834   21115164.028
        54.0004         49.0004
 -18028275.49348 -13985387.08848  21059727.8244   21059730.4954   21059728.154
        53.0004         49.0004
 -13953555.31448 -10857925.54747  22124799.2674   22124804.5154   22124799.677
        51.0004         47.0004
 15  5  1  0 11 30.0000000  0  9G11G01G04G32G18G22G19G14G27
 -14054377.96748 -10893178.35747  21767123.0764   21767124.6304   21767123.371
        49.0004         45.0004
  -8804129.04047  -6770512.11747  23185381.9514   23185387.7114   23185381.481
        47.0004         42.0004
 -20337161.30348 -15782445.67248  20936247.4354   20936249.4044   20936247.122
        53.0004         48.0004
 -17992341.84648 -13942813.16147  21487664.0454   21487668.2934   21487665.045
        51.0004         47.0004
  -6917777.20847  -5127190.27046  23817444.6744   23817445.1584   23817445.932
        44.0004         39.0004
 -15332868.07748 -11894742.30248  21299739.1054   21299739.7894   21299739.903
        53.0004         48.0004
 -18962411.37249 -14713695.30148  21123087.7024   21123088.3274   21123088.412
        54.0004         49.0004
 -18044167.67948 -13997770.59348  21056703.6324   21056706.0624   21056704.364
        53.0004         49.0004
 -13861911.85848 -10786515.07547  22142239.0584   22142243.5894   22142239.008
        51.0004         47.0004
 15  5  1  0 12  0.0000000  0  9G11G01G04G32G18G22G19G14G27
 -14133005.21448 -10954446.31247  21752160.9474   21752161.7294   21752161.495
        50.0004         45.0004
  -8894784.03847  -6841152.32247  23168128.9184   23168135.6984   23168129.593
        47.0004         42.0004
 -20397363.33148 -15829356.33248  20924791.3524   20924793.6094   20924791.330
        53.0004         48.0004
 -18057911.89348 -13993906.66047  21475187.0224   21475190.4034   21475187.807
        51.0004         47.0004
  -6836621.12647  -5063951.80246  23832887.5594   23832887.3404   23832888.968
        44.0004         39.0004
 -15276747.11948 -11851011.68848  21310418.6254   21310419.0034   21310418.982
        53.0004         48.0004
 -18920217.50349 -14680816.97748  21131116.5104   21131118.2874   21131117.330
        54.0004         49.0004
 -18059493.14948 -14009712.50548  21053788.1774   21053789.9124   21053788.181
        53.0004         49.0004
 -13769937.17648 -10714846.51347  22159741.1984   22159746.0284   22159741.373
        52.0004         47.0004
 15  5  1  0 12 30.0000000  0  9G11G01G04G32G18G22G19G14G27
 -14211279.99948 -11015439.63747  21737265.5274   21737267.2074   21737265.926
        50.0004         45.0004
  -8985330.52547  -6911707.97146  23150898.4684   23150905.1874   23150898.898
        46.0004         41.0004
 -20457236.21648 -15876010.51148  20913397.5914   20913399.9294   20913397.335
        53.0004         48.0004
 -18123141.55448 -14044734.92947  21462773.7824   21462777.5204   21462774.766
        51.0004         47.0004
  -6755408.37147  -5000669.16646  23848341.4344   23848345.3874   23848340.693
        44.0004         39.0004
 -15220399.83248 -11807104.71748  21321141.2934   21321141.5434   21321142.621
        53.0004         49.0004
 -18877472.16949 -14647508.93448  21139251.1864   21139252.3004   21139252.574
        54.0004         49.0004
 -18074250.42648 -14021211.66548  21050979.0964   21050982.0254   21050979.696
        53.0004         49.0004
 -13677632.43448 -10642920.77447  22177305.5604   22177311.6374   22177305.675
        52.0004         47.0004
 15  5  1  0 13  0.0000000  0  9G11G01G04G32G18G22G19G14G27
 -14289199.11148 -11076155.79147  21722438.5094   21722439.9084   21722438.862
        50.0004         45.0004
  -9075766.23347  -6982177.28646  23133688.4834   23133695.7294   23133689.036
        46.0004         41.0004
 -20516777.67648 -15922406.43748  20902067.2014   20902070.0364   20902067.547
        53.0004         48.0004
 -18188029.45148 -14095296.90147  21450425.9514   21450429.5314   21450426.529
        51.0004         47.0004
  -6674139.55747  -4937342.83646  23863806.4784   23863809.9664   23863805.899
        43.0004         38.0004
 -15163826.45548 -11763021.57648  21331907.0274   21331907.3744   21331907.931
        53.0004         48.0004
 -18834176.13249 -14613771.77448  21147489.5274   21147490.8334   21147490.587
        54.0004         49.0004
 -18088438.17848 -14032267.04348  21048279.5314   21048281.7484   21048279.910
        53.0004         49.0004
 -13584999.46748 -10570739.25647  22194933.0444   22194937.8454   22194932.886
        51.0004         46.0004
 15  5  1  0 13 30.0000000  0  9G11G01G04G32G18G22G19G14G27
 -14366760.01448 -11136592.83247  21707679.0764   21707680.0754   21707680.085
        50.0004         45.0004
  -9166089.70347  -7052559.15646  23116502.0904   23116508.0224   23116502.307
        46.0004         41.0004
 -20575986.06048 -15968542.83448  20890800.8394   20890803.3534   20890800.397
        53.0004         49.0004
 -18252575.05448 -14145592.14847  21438143.6614   21438146.7064   21438144.682
        51.0004         47.0004
  -6592815.29747  -4873973.31646  23879279.0744   23879287.2264   23879281.954
        42.0004         37.0004
 -15107028.40748 -11718763.35948  21342715.1234   21342715.2564   21342716.202
        53.0004         48.0004
 -18790330.69549 -14579606.51548  21155833.6664   21155834.5474   21155834.648
        54.0004         49.0004
 -18102056.11348 -14042878.40548  21045688.0284   21045690.3204   21045688.126
        53.0004         49.0004
 -13492040.94248 -10498304.05847  22212622.9104   22212627.5524   22212622.888
        51.0004         47.0004
 15  5  1  0 14  0.0000000  0  9G11G01G04G32G18G22G19G14G27
 -14443963.10348 -11196751.05147  21692987.8834   21692989.2914   21692988.242
        50.0004         45.0004
  -9256301.52947  -7122854.03447  23099334.7934   23099340.8804   23099334.088
        46.0004         42.0004
 -20634861.95548 -16014420.13548  20879596.3644   20879599.3504   20879596.853
        53.0004         48.0004
 -18316779.95548 -14195621.90147  21425926.0434   21425929.1194   21425927.202
        51.0004         47.0004
  -6511438.27547  -4810562.68646  23894767.0524   23894769.9074   23894766.653
        42.0004         38.0004
 -15050008.70048 -11674332.43448  21353565.3844   21353566.7194   21353566.170
        53.0004         48.0004
 -18745939.24949 -14545015.78248  21164280.8354   21164282.4454   21164282.175
        54.0004         49.0004
 -18115106.24448 -14053047.31448  21043204.3434   21043207.1324   21043204.890
        53.0004         49.0004
 -13398761.57848 -10425618.88247  22230373.5204   22230378.4414   22230372.863
        51.0004         47.0004
 15  5  1  0 14 30.0000000  0  9G11G01G04G32G18G22G19G14G27
 -14520805.79448 -11256628.44647  21678364.6514   21678366.4724   21678364.955
        50.0004         45.0004
  -9346400.41447  -7193060.90546  23082188.6094   23082195.4304   23082187.928
        46.0004         41.0004
 -20693403.36948 -16060036.80448  20868456.1944   20868459.0134   20868455.450
        53.0004         48.0004
 -18380643.79248 -14245385.90147  21413772.7864   21413776.4064   21413773.489
        51.0004         47.0004
  -6430008.91947  -4747111.26046  23910263.0914   23910264.5134   23910263.150
        42.0004         38.0004
 -14992768.69948 -11629729.84548  21364458.6614   21364458.6144   21364459.497
        53.0004         49.0004
 -18701003.25649 -14510000.73848  21172831.8764   21172833.3784   21172833.180
        54.0004         49.0004
 -18127588.10748 -14062773.43248  21040829.6154   21040831.8614   21040829.598
        53.0004         49.0004
 -13305164.19548 -10352685.89147  22248184.2434   22248189.3594   22248184.310
        51.0004         47.0004
 15  5  1  0 15  0.0000000  0  9G11G01G04G32G18G22G19G14G27
 -14597283.45848 -11316221.41047  21663811.4314   21663813.4244   21663811.085
        50.0004         45.0004
  -9436382.59347  -7263176.83447  23065065.6054   23065072.4234   23065065.304
        46.0004         42.0004
 -20751606.34648 -16105389.75648  20857380.7504   20857383.7564   20857381.306
        53.0004         49.0004
 -18444163.92748 -14294882.07847  21401685.5664   21401689.4304   21401686.427
        52.0004         47.0004
  -6348526.14347  -4683618.21346  23925767.1854   23925770.5844   23925767.182
        43.0004         38.0004
 -14935307.16748 -11584954.63848  21375392.7674   21375393.0334   21375393.830
        53.0004         48.0004
 -18655522.04649 -14474560.84548  21181486.6774   21181488.0034   21181488.197
        54.0004         49.0004
 -18139499.57448 -14072055.08348  21038562.6454   21038564.8164   21038562.999
        53.0004         49.0004
 -13211249.22148 -10279505.40347  22266056.4034   22266060.6354   22266055.881
        51.0004         46.0004
 15  5  1  0 15 30.0000000  0  9G11G01G04G32G18G22G19G14G27
 -14673393.62148 -11375527.99047  21649328.7974   21649329.7434   21649329.231
        50.0004         46.0004
  -9526246.16647  -7333200.34147  23047966.8694   23047972.2704   23047966.064
        47.0004         42.0004
 -20809468.96948 -16150477.49648  20846370.3004   20846372.5804   20846370.007
        53.0004         48.0004
 -18507339.35648 -14344109.65247  21389663.8574   21389666.9784   21389664.361
        52.0004         47.0004
  -6266990.30147  -4620083.79746  23941283.6034   23941286.0064   23941284.498
        43.0004         39.0004
 -14877624.80248 -11540007.34648  21386369.5014   21386369.5224   21386370.736
        53.0004         48.0004
 -18609496.29749 -14438696.63948  21190244.8254   21190246.5754   21190245.856
        54.0004         49.0004
 -18150840.03548 -14080891.79248  21036404.8934   21036406.9604   21036405.499
        53.0004         49.0004
 -13117018.83848 -10206079.16547  22283986.9744   22283991.8454   22283987.413
        51.0004         46.0004
 15  5  1  0 16  0.0000000  0  9G11G01G04G32G18G22G19G14G27
 -14749138.07348 -11434549.61547  21634914.4994   21634915.8544   21634915.121
        50.0004         45.0004
  -9615993.51147  -7403133.28547  23030888.8354   23030893.9494   23030888.799
        47.0004         42.0004
 -20866993.31948 -16195301.64948  20835423.6374   20835426.2464   20835423.519
        53.0004         49.0004
 -18570173.55548 -14393071.33047  21377706.6144   21377710.2084   21377707.431
        52.0004         47.0004
  -6185406.33447  -4556511.88946  23956810.0914   23956812.1364   23956811.366
        44.0004         39.0004
 -14819726.55148 -11494891.82848  21397387.1644   21397387.7394   21397387.716
        53.0004         48.0004
 -18562931.68649 -14402412.53548  21199105.6674   21199107.1604   21199107.057
        54.0004         49.0004
 -18161613.19148 -14089286.44048  21034354.5434   21034356.6854   21034355.272
        53.0004         49.0004
 -13022479.64348 -10132412.29947  22301977.9214   22301982.6844   22301977.042
        51.0004         46.0004
 15  5  1  0 16 30.0000000  0  9G11G01G04G32G18G22G19G14G27
 -14824509.70048 -11493280.73547  21620572.4494   21620573.0734   21620571.894
        50.0004         46.0004
  -9705618.99947  -7472971.26547  23013833.1744   23013838.6934   23013832.956
        47.0004         42.0004
 -20924173.82448 -16239857.88048  20824542.5624   20824544.7594   20824542.904
        53.0004         49.0004
 -18632661.84048 -14441763.46747  21365815.0494   21365819.1974   21365815.573
        52.0004         47.0004
  -6103770.47647  -4492899.55446  23972344.0074   23972346.9734   23972344.079
        44.0004         39.0004
 -14761609.36048 -11449605.71448  21408446.2554   21408447.2794   21408447.436
        53.0004         48.0004
 -18515825.47349 -14365706.40648  21208070.1294   21208071.3334   21208070.473
        54.0004         49.0004
 -18171814.60048 -14097235.57848  21032413.1334   21032415.5894   21032413.332
        53.0004         49.0004
 -12927630.20748 -10058503.67747  22320026.9924   22320032.3444   22320027.298
        51.0004         46.0004
 15  5  1  0 17  0.0000000  0  9G11G01G04G32G18G22G19G14G27
 -14899507.76448 -11551720.75647  21606300.1494   21606302.8154   21606300.229
        50.0004         46.0004
  -9795122.54647  -7542714.23047  22996800.3054   22996806.1244   22996799.350
        47.0004         42.0004
 -20981009.99648 -16284145.79348  20813726.4984   20813729.6364   20813725.904
        53.0004         49.0004
 -18694805.15448 -14490186.80147  21353989.9774   21353993.9894   21353990.704
        52.0004         47.0004
  -6022084.88247  -4429248.48346  23987887.3374   23987891.3134   23987888.051
        43.0004         38.0004
 -14703275.99548 -11404151.15448  21419546.3864   21419547.8564   21419547.420
        53.0004         48.0004
 -18468180.56849 -14328580.52048  21217136.7244   21217137.9284   21217138.043
        54.0004         49.0004
 -18181445.73348 -14104740.34648  21030580.9464   21030582.6264   21030582.029
        53.0004         49.0004
 -12832474.62048  -9984356.50347  22338133.5094   22338138.4994   22338133.754
        50.0004         45.0004
 15  5  1  0 17 30.0000000  0  9G11G01G04G32G18G22G19G14G27
 -14974132.02448 -11609869.50447  21592099.7314   21592101.7054   21592100.727
        50.0004         46.0004
  -9884504.62147  -7612362.54647  22979790.2984   22979797.2094   22979789.773
        46.0004         42.0004
 -21037502.02848 -16328165.54348  20802977.1104   20802979.0094   20802977.154
        53.0004         49.0004
 -18756605.07948 -14538342.55347  21342229.2844   21342233.2094   21342229.722
        52.0004         47.0004
  -5940351.95547  -4365560.51946  24003440.6574   24003444.0114   24003442.051
        43.0004         38.0004
 -14644729.37248 -11358530.42148  21430687.6314   21430688.8384   21430689.217
        53.0004         48.0004
 -18420000.32249 -14291037.48948  21226304.5004   21226306.0594   21226305.293
        54.0004         49.0004
 -18190508.50248 -14111802.23048  21028855.9624   21028858.1044   21028856.265
        53.0004         49.0004
 -12737017.58048  -9909974.43147  22356299.2194   22356304.1494   22356300.444
        50.0004         46.0004
 15  5  1  0 18  0.0000000  0  9G11G01G04G32G18G22G19G14G27
 -15048377.75948 -11667723.30247  21577970.9624   21577973.1584   21577971.934
        51.0004         46.0004
  -9973760.86547  -7681912.84547  22962805.7704   22962812.4654   22962805.816
        46.0004         42.0004
 -21093645.64548 -16371913.80048  20792292.7694   20792295.6164   20792292.639
        53.0004         49.0004
 -18818058.38848 -14586228.22547  21330535.5384   21330538.7084   21330536.158
        52.0004         47.0004
  -5858570.07647  -4301834.43446  24019003.4474   24019006.1384   24019004.198
        43.0004         38.0004
 -14585967.59148 -11312742.01948  21441869.4264   21441869.8284   21441870.049
        53.0004         48.0004
 -18371283.70949 -14253076.49948  21235575.5724   21235576.7964   21235576.849
        54.0004         49.0004
 -18198999.92748 -14118418.91348  21027239.4214   21027242.5104   21027240.263
        53.0004         49.0004
 -12641258.98448  -9835357.37047  22374521.4044   22374526.3284   22374522.035
        50.0004         46.0004
 15  5  1  0 18 30.0000000  0  9G11G01G04G32G18G22G19G14G27
 -15122243.74148 -11725281.18947  21563915.0974   21563916.5554   21563915.241
        51.0004         46.0004
 -10062891.00647  -7751364.86247  22945846.5234   22945851.6214   22945846.567
        47.0004         42.0004
 -21149440.20248 -16415390.06448  20781675.8374   20781678.5594   20781675.668
        53.0004         49.0004
 -18879165.86148 -14633844.40747  21318906.8524   21318910.3784   21318907.804
        52.0004         47.0004
  -5776740.77947  -4238071.40846  24034576.8434   24034577.4144   24034576.569
        43.0004         38.0004
 -14526993.20848 -11266787.96148  21453092.1134   21453093.0834   21453092.360
        53.0004         48.0004
 -18322033.56049 -14214699.77848  21244947.4514   21244948.8534   21244948.704
        54.0004         49.0004
 -18206921.36548 -14124591.45448  21025732.9294   21025735.1934   21025733.106
        53.0004         49.0004
 -12545202.80548  -9760508.44247  22392799.2534   22392805.3334   22392799.851
        50.0004         45.0004
 15  5  1  0 19  0.0000000  0  9G11G01G04G32G18G22G19G14G27
 -15195727.68248 -11782541.37747  21549931.3494   21549932.6474   21549932.330
        51.0004         46.0004
 -10151893.93747  -7820717.76347  22928909.5274   22928914.4514   22928910.000
        47.0004         42.0004
 -21204884.56848 -16458593.44548  20771124.7144   20771127.4134   20771124.729
        53.0004         49.0004
 -18939927.59948 -14681191.18247  21307344.0704   21307348.4604   21307344.493
        52.0004         47.0004
  -5694865.45747  -4174272.51546  24050155.0184   24050157.0034   24050156.175
        43.0004         38.0004
 -14467807.91548 -11220669.55948  21464354.5644   21464355.3014   21464355.396
        53.0004         48.0004
 -18272251.64149 -14175908.67948  21254420.3764   21254422.0534   21254421.722
        54.0004         49.0004
 -18214273.33748 -14130320.24548  21024333.9654   21024336.1804   21024334.339
        53.0004         49.0004
 -12448852.14248  -9685430.03447  22411135.0414   22411140.5494   22411135.163
        50.0004         45.0004
 15  5  1  0 19 30.0000000  0  9G11G01G04G32G18G22G19G14G27
 -15268826.65148 -11839501.59647  21536021.9364   21536022.7244   21536022.266
        51.0004         46.0004
 -10240766.90847  -7889969.37247  22911996.8244   22912002.8584   22911997.323
        47.0004         42.0004
 -21259975.87948 -16501521.72948  20760641.2214   20760644.1924   20760641.009
        53.0004         49.0004
 -19000341.80748 -14728267.15847  21295847.8484   21295851.9614   21295848.372
        52.0004         47.0004
  -5612943.40847  -4110437.18246  24065743.7904   24065745.8924   24065744.070
        42.0004         38.0004
 -14408411.32748 -11174386.51248  21475656.9454   21475658.4464   21475658.148
        53.0004         48.0004
 -18221938.47349 -14136703.62348  21263994.4704   21263996.2104   21263995.237
        54.0004         49.0004
 -18221054.38248 -14135604.16848  21023043.0164   21023045.4834   21023043.265
        53.0004         49.0004
 -12352208.52748  -9610123.35247  22429526.5374   22429531.3264   22429525.627
        50.0004         46.0004
 15  5  1  0 20  0.0000000  0  9G11G01G04G32G18G22G19G14G27
 -15341538.33648 -11896160.02647  21522184.7144   21522185.5184   21522185.129
        51.0004         46.0004
 -10329508.62447  -7959118.70647  22895109.1824   22895115.8444   22895109.242
        47.0004         43.0004
 -21314712.49249 -16544173.61948  20750225.6714   20750227.9464   20750225.670
        54.0004         49.0004
 -19060408.46948 -14775072.32547  21284417.4444   21284421.6654   21284418.771
        52.0004         47.0004
  -5530975.75447  -4046566.30746  24081342.1804   24081345.3284   24081342.190
        42.0004         37.0004
 -14348804.78048 -11127939.85748  21487000.0344   21487001.0444   21487001.429
        53.0004         48.0004
 -18171095.90949 -14097086.05948  21273669.6984   21273670.6654   21273671.023
        54.0004         49.0004
 -18227264.64048 -14140443.32048  21021861.3934   21021863.5734   21021861.788
        53.0004         49.0004
 -12255274.95648  -9534590.74147  22447971.2804   22447976.7994   22447971.250
        50.0004         45.0004
 15  5  1  0 20 30.0000000  0  9G11G01G04G32G18G22G19G14G27
 -15413861.46348 -11952515.69647  21508421.7034   21508423.5594   21508422.167
        51.0004         46.0004
 -10418118.23147  -8028165.09447  22878247.6154   22878253.0634   22878247.892
        47.0004         43.0004
 -21369093.57649 -16586548.48048  20739877.2274   20739879.3334   20739877.416
        54.0004         49.0004
 -19120127.86248 -14821606.87847  21273053.7004   21273057.7264   21273054.408
        52.0004         47.0004
  -5448963.70147  -3982660.83846  24096949.9264   24096950.5904   24096950.389
        42.0004         37.0004
 -14288990.05648 -11081330.98648  21498382.6134   21498383.1634   21498383.392
        53.0004         48.0004
 -18119726.17349 -14057057.71048  21283445.0194   21283446.5354   21283445.903
        54.0004         49.0004
 -18232905.13848 -14144838.50348  21020788.4714   21020789.9194   21020788.502
        53.0004         49.0004
 -12158054.85748  -9458834.85747  22466472.2704   22466477.2524   22466472.525
        50.0004         46.0004
 15  5  1  0 21  0.0000000  0  9G11G01G04G32G18G22G19G14G27
 -15485793.78848 -12008566.82847  21494733.7184   21494735.5004   21494734.415
        51.0004         46.0004
 -10506594.49747  -8097107.58847  22861411.5104   22861417.0354   22861411.450
        47.0004         43.0004
 -21423117.87949 -16628645.32748  20729596.6564   20729599.1964   20729596.790
        54.0004         49.0004
 -19179499.83848 -14867870.72447  21261755.4704   21261758.9244   21261756.462
        52.0004         47.0004
  -5366908.34147  -3918721.59646  24112563.4114   24112566.6044   24112564.850
        42.0004         37.0004
 -14228968.49448 -11034560.93948  21509804.3314   21509805.2064   21509804.881
        53.0004         48.0004
 -18067831.23049 -14016620.10248  21293320.3844   21293321.9754   21293321.266
        54.0004         49.0004
 -18237976.18148 -14148789.95048  21019822.9574   21019825.8774   21019823.338
        53.0004         49.0004
 -12060551.31648  -9382858.09747  22485025.8354   22485031.8834   22485026.562
        50.0004         46.0004
 15  5  1  0 21 30.0000000  0  9G11G01G04G32G18G22G19G14G27
 -15557331.94848 -12064310.83647  21481119.6084   21481122.2664   21481119.737
        51.0004         46.0004
 -10594934.72747  -8165944.08147  22844600.9494   22844605.4664   22844600.818
        47.0004         42.0004
 -21476782.34049 -16670461.77548  20719384.1544   20719387.0574   20719383.967
        54.0004         49.0004
 -19238522.92348 -14913862.70547  21250523.4194   21250527.2264   21250524.382
        52.0004         47.0004
  -5284808.78846  -3854747.91246  24128186.9414   24128187.0114   24128187.988
        41.0004         37.0004
 -14168740.32348 -10987629.90548  21521264.9934   21521266.3134   21521266.097
        53.0004         48.0004
 -18015411.73649 -13975773.75448  21303295.7234   21303297.1084   21303296.549
        54.0004         49.0004
 -18242476.76548 -14152296.89048  21018966.5014   21018968.8574   21018967.007
        53.0004         49.0004
 -11962765.91148  -9306661.70947  22503634.1504   22503641.4134   22503634.488
        50.0004         46.0004
 15  5  1  0 22  0.0000000  0  9G11G01G04G32G18G22G19G14G27
 -15628474.40448 -12119746.49347  21467582.0364   21467583.8994   21467581.950
        51.0004         46.0004
 -10683138.03347  -8234673.90147  22827816.7524   22827819.6044   22827816.540
        47.0004         42.0004
 -21530086.24049 -16711997.26648  20709241.1664   20709243.8564   20709241.509
        54.0004         49.0004
 -19297197.57948 -14959583.18247  21239358.0764   21239361.5164   21239358.394
        52.0004         47.0004
  -5202667.11646  -3790741.44546  24143818.1394   24143820.2244   24143818.947
        41.0004         37.0004
 -14108307.28948 -10940539.22948  21532764.9694   21532766.4374   21532765.889
        52.0004         48.0004
 -17962470.15649 -13934520.59048  21313370.0304   21313371.5714   21313371.126
        54.0004         49.0004
 -18246407.75648 -14155359.98748  21018218.8354   21018220.8354   21018218.919
        53.0004         49.0004
 -11864702.13748  -9230248.41847  22522296.1794   22522300.9674   22522296.261
        50.0004         46.0004
 15  5  1  0 22 30.0000000  0  9G11G01G04G32G18G22G19G14G27
 -15699217.56048 -12174871.02447  21454120.3104   21454121.5214   21454120.869
        51.0004         46.0004
 -10771201.52647  -8303294.76847  22811058.1234   22811062.8914   22811057.523
        47.0004         43.0004
 -21583026.46649 -16753249.38148  20699166.7984   20699169.5884   20699166.554
        54.0004         49.0004
 -19355521.94148 -15005030.71047  21228259.3624   21228262.8104   21228259.453
        52.0004         47.0004
  -5120482.52046  -3726701.52846  24159457.4274   24159459.9044   24159457.873
        41.0004         37.0004
 -14047668.97348 -10893288.60548  21544304.4324   21544305.7504   21544305.617
        53.0004         48.0004
 -17909006.93049 -13892860.94748  21323544.0334   21323545.0904   21323545.373
        54.0004         49.0004
 -18249768.00548 -14157978.35448  21017579.3644   21017581.9394   21017579.701
        53.0004         49.0004
 -11766361.37048  -9153619.27947  22541009.2764   22541014.1484   22541010.137
        50.0004         45.0004
 15  5  1  0 23  0.0000000  0  9G11G01G04G32G18G22G19G14G27
 -15769560.64948 -12229683.80847  21440734.4134   21440736.2404   21440734.836
        51.0004         46.0004
 -10859125.03248  -8371806.53947  22794327.0604   22794331.8854   22794325.303
        48.0004         43.0004
 -21635602.59249 -16794217.77848  20689161.6264   20689164.2964   20689161.231
        54.0004         49.0004
 -19413497.16048 -15050206.17347  21217227.1484   21217230.3964   21217227.698
        52.0004         47.0004
  -5038257.33146  -3662629.98946  24175104.6114   24175104.3514   24175105.895
        41.0004         36.0004
 -13986827.80648 -10845879.90248  21555882.2744   21555882.8944   21555883.389
        53.0004         48.0004
 -17855025.29449 -13850797.34648  21333815.6744   21333817.7214   21333816.432
        54.0004         49.0004
 -18252559.05748 -14160153.19148  21017047.6794   21017051.0654   21017048.412
        53.0004         49.0004
 -11667747.81648  -9076777.57347  22559774.1034   22559779.7394   22559774.674
        50.0004         45.0004
 15  5  1  0 23 30.0000000  0  9G11G01G04G32G18G22G19G14G27
 -15839501.67648 -12284183.29947  21427424.8504   21427426.9184   21427424.690
        51.0004         46.0004
 -10946907.03048  -8440208.05047  22777621.7974   22777628.1674   22777622.536
        48.0004         44.0004
 -21687813.47149 -16834901.57748  20679226.7834   20679228.6124   20679227.425
        54.0004         49.0004
 -19471122.94248 -15095109.33947  21206260.6004   21206264.6594   21206261.605
        52.0004         47.0004
  -4955991.61046  -3598526.88246  24190758.7244   24190762.7754   24190760.202
        40.0004         36.0004
 -13925785.09548 -10798314.15848  21567498.0894   21567498.7794   21567499.593
        52.0004         48.0004
 -17800526.85249 -13808331.04048  21344186.5854   21344188.0274   21344188.091
        54.0004         49.0004
 -18254781.14948 -14161884.68648  21016625.4064   21016627.3474   21016625.669
        53.0004         49.0004
 -11568864.34348  -8999725.55047  22578591.1734   22578596.1944   22578592.552
        50.0004         45.0004
 15  5  1  0 24  0.0000000  0  9G11G01G04G32G18G22G19G14G27
 -15909037.66048 -12338367.17047  21414192.6574   21414194.6804   21414192.410
        51.0004         46.0004
 -11034545.67548  -8508497.85847  22760946.0474   22760950.4044   22760945.299
        48.0004         44.0004
 -21739656.66349 -16875298.86548  20669361.3474   20669363.5474   20669360.696
        54.0004         49.0004
 -19528398.65448 -15139739.73647  21195361.5444   21195365.5704   21195362.587
        52.0004         47.0004
  -4873685.75446  -3534392.53845  24206422.1884   24206424.0394   24206421.588
        40.0004         35.0004
 -13864541.44748 -10750591.83548  21579152.2124   21579152.9664   21579152.980
        52.0004         48.0004
 -17745512.97249 -13765463.09248  21354655.5874   21354657.1974   21354656.413
        54.0004         49.0004
 -18256434.53548 -14163173.02548  21016310.3514   21016312.7454   21016310.736
        53.0004         49.0004
 -11469713.41948  -8922465.11847  22597460.5894   22597464.9764   22597459.806
        50.0004         45.0004
 15  5  1  0 24 30.0000000  0  9G11G01G04G32G18G22G19G14G27
 -15978165.95448 -12392233.35947  21401038.3514   21401040.1674   21401038.575
        51.0004         46.0004
 -11122038.74748  -8576674.23047  22744296.6384   22744301.8984   22744294.962
        48.0004         44.0004
 -21791130.16649 -16915408.08348  20659566.1884   20659568.2894   20659566.535
        54.0004         49.0004
 -19585323.41248 -15184096.65947  21184529.8784   21184532.5374   21184530.228
        52.0004         47.0004
  -4791340.14046  -3470227.17845  24222091.4484   24222093.8974   24222090.384
        40.0004         35.0004
 -13803097.62048 -10702713.52848  21590845.1484   21590845.8994   21590846.128
        52.0004         48.0004
 -17689984.97949 -13722194.53648  21365222.0294   21365223.4664   21365223.329
        54.0004         49.0004
 -18257518.49748 -14164017.65948  21016104.5794   21016106.7584   21016105.134
        53.0004         49.0004
 -11370297.26048  -8844998.00347  22616378.4364   22616382.2284   22616378.359
        50.0004         45.0004
 15  5  1  0 25  0.0000000  0  9G11G01G04G32G18G22G19G14G27
 -16046884.94448 -12445780.61247  21387961.4064   21387962.4704   21387961.361
        51.0004         46.0004
 -11209385.18048  -8644736.32247  22727674.0364   22727680.2884   22727673.977
        48.0004         44.0004
 -21842232.72549 -16955228.25748  20649841.7354   20649843.9094   20649841.284
        54.0004         49.0004
 -19641897.42448 -15228180.26947  21173763.6174   21173767.0634   21173764.315
        52.0004         47.0004
  -4708956.02246  -3406031.82345  24237765.9654   24237770.2814   24237768.203
        40.0004         35.0004
 -13741454.96548 -10654680.31047  21602574.6154   21602575.5704   21602575.402
        52.0004         47.0004
 -17633945.28649 -13678527.26048  21375886.4684   21375887.6024   21375887.165
        54.0004         49.0004
 -18258033.63248 -14164419.06148  21016006.3874   21016009.2024   21016006.566
        53.0004         49.0004
 -11270619.13148  -8767326.76147  22635346.7054   22635350.9584   22635346.476
        50.0004         45.0004
 15  5  1  0 25 30.0000000  0  9G11G01G04G32G18G22G19G14G27
 -16115191.10548 -12499006.17647  21374963.6504   21374964.8114   21374963.978
        51.0004         47.0004
 -11296582.02548  -8712681.87647  22711081.5874   22711086.0434   22711082.407
        48.0004         44.0004
 -21892961.52049 -16994757.18348  20640188.0164   20640190.3734   20640188.127
        54.0004         49.0004
 -19698119.09048 -15271989.31848  21163064.8664   21163068.9234   21163065.269
        52.0004         48.0004
  -4626532.62046  -3341805.84246  24253453.2314   24253455.9054   24253453.114
        40.0004         36.0004
 -13679613.33048 -10606492.02147  21614342.7724   21614343.5024   21614343.069
        52.0004         47.0004
 -17577394.31149 -13634461.58648  21386647.4184   21386649.5304   21386648.913
        54.0004         49.0004
 -18257979.30848 -14164376.71948  21016016.3904   21016018.6884   21016017.246
        53.0004         49.0004
 -11170680.51548  -8689452.54247  22654363.6914   22654369.5944   22654363.476
        50.0004         45.0004
 15  5  1  0 26  0.0000000  0  9G11G01G04G32G18G22G19G14G27
 -16183086.59848 -12551911.74347  21362043.0844   21362044.9264   21362043.581
        51.0004         47.0004
 -11383632.05848  -8780513.03747  22694516.7134   22694522.8424   22694516.999
        48.0004         43.0004
 -21943319.25049 -17033996.96848  20630605.0244   20630607.6184   20630604.962
        54.0004         49.0004
 -19753992.39048 -15315526.92248  21152432.7264   21152436.2964   21152433.451
        52.0004         48.0004
  -4544074.92346  -3277553.13546  24269144.4934   24269147.7304   24269145.680
        40.0004         36.0004
 -13617578.06448 -10558152.85647  21626149.0524   21626147.9244   21626150.529
        52.0004         47.0004
 -17520338.50449 -13590002.52848  21397505.0034   21397506.5654   21397506.215
        54.0004         49.0004
 -18257360.21648 -14163894.30348  21016134.2344   21016136.5554   21016134.944
        53.0004         49.0004
 -11070488.60948  -8611380.95747  22673429.1734   22673435.1874   22673428.858
        50.0004         45.0004
 15  5  1  0 26 30.0000000  0  9G11G01G04G32G18G22G19G14G27
 -16250561.83848 -12604489.84947  21349203.4614   21349204.4954   21349203.630
        51.0004         47.0004
 -11470526.18948  -8848222.72647  22677982.6194   22677986.6374   22677981.745
        48.0004         44.0004
 -21993296.73849 -17072940.46548  20621095.0454   20621097.0824   20621094.957
        54.0004         49.0004
 -19809509.68348 -15358787.12248  21141867.7924   21141871.3134   21141867.832
        52.0004         48.0004
  -4461576.03746  -3213268.33146  24284843.1514   24284845.7844   24284842.912
        40.0004         36.0004
 -13555342.91948 -10509657.94347  21637991.3894   21637991.3574   21637992.455
        52.0004         47.0004
 -17462772.13149 -13545145.63248  21408459.6614   21408460.6134   21408460.837
        54.0004         49.0004
 -18256169.18548 -14162966.21848  21016361.1854   21016363.0564   21016361.125
        53.0004         49.0004
 -10970038.70648  -8533108.35447  22692544.8724   22692549.5354   22692543.379
        49.0004         44.0004
 15  5  1  0 27  0.0000000  0  9G11G01G04G32G18G22G19G14G27
 -16317622.13848 -12656744.62047  21336442.3024   21336442.8774   21336442.436
        51.0004         47.0004
 -11557270.52148  -8915815.65147  22661474.4934   22661480.4784   22661474.793
        48.0004         44.0004
 -22042900.34849 -17111592.62048  20611655.4474   20611658.0524   20611655.240
        54.0004         49.0004
 -19864678.34448 -15401775.65748  21131369.6624   21131373.4734   21131370.534
        52.0004         48.0004
  -4379044.21146  -3148957.86145  24300545.6124   24300550.5694   24300549.560
        40.0004         35.0004
 -13492916.57548 -10461014.03448  21649870.4794   21649870.8544   21649871.766
        52.0004         48.0004
 -17404704.88049 -13499898.43348  21419509.5844   21419510.8954   21419510.812
        54.0004         49.0004
